[{"iata":"GKA","icao":"AYGA","name":"Goroka Airport","city":"Goroka","country":"Papua New Guinea","lat":-6.081689834590001,"lon":145.391998291},{"iata":"MAG","icao":"AYMD","name":"Madang Airport","city":"Madang","country":"Papua New Guinea","lat":-5.20707988739,"lon":145.789001465},{"iata":"HGU","icao":"AYMH","name":"Mount Hagen Kagamuga Airport","city":"Mount Hagen","country":"Papua New Guinea","lat":-5.826789855957031,"lon":144.29600524902344},{"iata":"LAE","icao":"AYNZ","name":"Nadzab Airport","city":"Nadzab","country":"Papua New Guinea","lat":-6.569803,"lon":146.725977},{"iata":"POM","icao":"AYPY","name":"Port Moresby Jacksons International Airport","city":"Port Moresby","country":"Papua New Guinea","lat":-9.443380355834961,"lon":147.22000122070312},{"iata":"WWK","icao":"AYWK","name":"Wewak International Airport","city":"Wewak","country":"Papua New Guinea","lat":-3.58383011818,"lon":143.669006348},{"iata":"UAK","icao":"BGBW","name":"Narsarsuaq Airport","city":"Narssarssuaq","country":"Greenland","lat":61.1604995728,"lon":-45.4259986877},{"iata":"GOH","icao":"BGGH","name":"Godthaab / Nuuk Airport","city":"Godthaab","country":"Greenland","lat":64.19090271,"lon":-51.6781005859},{"iata":"SFJ","icao":"BGSF","name":"Kangerlussuaq Airport","city":"Sondrestrom","country":"Greenland","lat":67.0122218992,"lon":-50.7116031647},{"iata":"THU","icao":"BGTL","name":"Thule Air Base","city":"Thule","country":"Greenland","lat":76.5311965942,"lon":-68.7032012939},{"iata":"AEY","icao":"BIAR","name":"Akureyri Airport","city":"Akureyri","country":"Iceland","lat":65.66000366210938,"lon":-18.07270050048828},{"iata":"EGS","icao":"BIEG","name":"Egilsstaðir Airport","city":"Egilsstadir","country":"Iceland","lat":65.2833023071289,"lon":-14.401399612426758},{"iata":"HFN","icao":"BIHN","name":"Hornafjörður Airport","city":"Hofn","country":"Iceland","lat":64.295601,"lon":-15.2272},{"iata":"HZK","icao":"BIHU","name":"Húsavík Airport","city":"Husavik","country":"Iceland","lat":65.952301,"lon":-17.426001},{"iata":"IFJ","icao":"BIIS","name":"Ísafjörður Airport","city":"Isafjordur","country":"Iceland","lat":66.05809783935547,"lon":-23.135299682617188},{"iata":"KEF","icao":"BIKF","name":"Keflavik International Airport","city":"Keflavik","country":"Iceland","lat":63.985000610352,"lon":-22.605600357056},{"iata":"PFJ","icao":"BIPA","name":"Patreksfjörður Airport","city":"Patreksfjordur","country":"Iceland","lat":65.555801,"lon":-23.965},{"iata":"RKV","icao":"BIRK","name":"Reykjavik Airport","city":"Reykjavik","country":"Iceland","lat":64.1299972534,"lon":-21.9405994415},{"iata":"SIJ","icao":"BISI","name":"Siglufjörður Airport","city":"Siglufjordur","country":"Iceland","lat":66.133301,"lon":-18.9167},{"iata":"VEY","icao":"BIVM","name":"Vestmannaeyjar Airport","city":"Vestmannaeyjar","country":"Iceland","lat":63.42430114746094,"lon":-20.278900146484375},{"iata":"YAM","icao":"CYAM","name":"Sault Ste Marie Airport","city":"Sault Sainte Marie","country":"Canada","lat":46.48500061035156,"lon":-84.5093994140625},{"iata":"YAY","icao":"CYAY","name":"St. Anthony Airport","city":"St. Anthony","country":"Canada","lat":51.3918991089,"lon":-56.083099365200006},{"iata":"YAZ","icao":"CYAZ","name":"Tofino / Long Beach Airport","city":"Tofino","country":"Canada","lat":49.079833,"lon":-125.775583},{"iata":"YBB","icao":"CYBB","name":"Kugaaruk Airport","city":"Pelly Bay","country":"Canada","lat":68.534401,"lon":-89.808098},{"iata":"YBC","icao":"CYBC","name":"Baie Comeau Airport","city":"Baie Comeau","country":"Canada","lat":49.13249969482422,"lon":-68.20439910888672},{"iata":"YBG","icao":"CYBG","name":"CFB Bagotville","city":"Bagotville","country":"Canada","lat":48.33060073852539,"lon":-70.99639892578125},{"iata":"YBK","icao":"CYBK","name":"Baker Lake Airport","city":"Baker Lake","country":"Canada","lat":64.29889678960001,"lon":-96.077796936},{"iata":"YBL","icao":"CYBL","name":"Campbell River Airport","city":"Campbell River","country":"Canada","lat":49.950801849365234,"lon":-125.27100372314453},{"iata":"YBR","icao":"CYBR","name":"Brandon Municipal Airport","city":"Brandon","country":"Canada","lat":49.91,"lon":-99.951897},{"iata":"YCB","icao":"CYCB","name":"Cambridge Bay Airport","city":"Cambridge Bay","country":"Canada","lat":69.1081008911,"lon":-105.138000488},{"iata":"YCD","icao":"CYCD","name":"Nanaimo Airport","city":"Nanaimo","country":"Canada","lat":49.054970224899996,"lon":-123.869862556},{"iata":"YCG","icao":"CYCG","name":"Castlegar/West Kootenay Regional Airport","city":"Castlegar","country":"Canada","lat":49.2963981628,"lon":-117.632003784},{"iata":"YCH","icao":"CYCH","name":"Miramichi Airport","city":"Chatham","country":"Canada","lat":47.007801,"lon":-65.449203},{"iata":"YCL","icao":"CYCL","name":"Charlo Airport","city":"Charlo","country":"Canada","lat":47.990799,"lon":-66.330299},{"iata":"YCO","icao":"CYCO","name":"Kugluktuk Airport","city":"Coppermine","country":"Canada","lat":67.816704,"lon":-115.143997},{"iata":"YCT","icao":"CYCT","name":"Coronation Airport","city":"Coronation","country":"Canada","lat":52.0750007629,"lon":-111.444999695},{"iata":"YCW","icao":"CYCW","name":"Chilliwack Airport","city":"Chilliwack","country":"Canada","lat":49.1528015137,"lon":-121.939002991},{"iata":"YCY","icao":"CYCY","name":"Clyde River Airport","city":"Clyde River","country":"Canada","lat":70.4860992432,"lon":-68.5167007446},{"iata":"YZS","icao":"CYZS","name":"Coral Harbour Airport","city":"Coral Harbour","country":"Canada","lat":64.1932983398,"lon":-83.3593978882},{"iata":"YDA","icao":"CYDA","name":"Dawson City Airport","city":"Dawson","country":"Canada","lat":64.04309844970703,"lon":-139.1280059814453},{"iata":"YDB","icao":"CYDB","name":"Burwash Airport","city":"Burwash","country":"Canada","lat":61.37110137939453,"lon":-139.04100036621094},{"iata":"YDF","icao":"CYDF","name":"Deer Lake Airport","city":"Deer Lake","country":"Canada","lat":49.21080017089844,"lon":-57.39139938354492},{"iata":"YDL","icao":"CYDL","name":"Dease Lake Airport","city":"Dease Lake","country":"Canada","lat":58.4221992493,"lon":-130.031997681},{"iata":"YDN","icao":"CYDN","name":"Dauphin Barker Airport","city":"Dauphin","country":"Canada","lat":51.100799560546875,"lon":-100.052001953125},{"iata":"YDQ","icao":"CYDQ","name":"Dawson Creek Airport","city":"Dawson Creek","country":"Canada","lat":55.7422981262207,"lon":-120.18299865722656},{"iata":"YEG","icao":"CYEG","name":"Edmonton International Airport","city":"Edmonton","country":"Canada","lat":53.309700012200004,"lon":-113.580001831},{"iata":"YEK","icao":"CYEK","name":"Arviat Airport","city":"Eskimo Point","country":"Canada","lat":61.0942001343,"lon":-94.07080078119999},{"iata":"YEN","icao":"CYEN","name":"Estevan Airport","city":"Estevan","country":"Canada","lat":49.2103004456,"lon":-102.966003418},{"iata":"YET","icao":"CYET","name":"Edson Airport","city":"Edson","country":"Canada","lat":53.578899383499994,"lon":-116.464996338},{"iata":"YEU","icao":"CYEU","name":"Eureka Airport","city":"Eureka","country":"Canada","lat":79.9946975708,"lon":-85.814201355},{"iata":"YEV","icao":"CYEV","name":"Inuvik Mike Zubko Airport","city":"Inuvik","country":"Canada","lat":68.30419921880001,"lon":-133.483001709},{"iata":"YFB","icao":"CYFB","name":"Iqaluit Airport","city":"Iqaluit","country":"Canada","lat":63.756402,"lon":-68.555801},{"iata":"YFC","icao":"CYFC","name":"Fredericton Airport","city":"Fredericton","country":"Canada","lat":45.868900299072266,"lon":-66.53720092773438},{"iata":"YFE","icao":"CYFE","name":"Forestville Airport","city":"Forestville","country":"Canada","lat":48.74610137939453,"lon":-69.09719848632812},{"iata":"YFO","icao":"CYFO","name":"Flin Flon Airport","city":"Flin Flon","country":"Canada","lat":54.6781005859375,"lon":-101.68199920654297},{"iata":"YFR","icao":"CYFR","name":"Fort Resolution Airport","city":"Fort Resolution","country":"Canada","lat":61.1808013916,"lon":-113.690002441},{"iata":"YFS","icao":"CYFS","name":"Fort Simpson Airport","city":"Fort Simpson","country":"Canada","lat":61.76020050048828,"lon":-121.23699951171875},{"iata":"YGK","icao":"CYGK","name":"Kingston Norman Rogers Airport","city":"Kingston","country":"Canada","lat":44.22529983520508,"lon":-76.5969009399414},{"iata":"YGL","icao":"CYGL","name":"La Grande Rivière Airport","city":"La Grande Riviere","country":"Canada","lat":53.625301361083984,"lon":-77.7042007446289},{"iata":"YGP","icao":"CYGP","name":"Gaspé (Michel-Pouliot) Airport","city":"Gaspe","country":"Canada","lat":48.7752990723,"lon":-64.4785995483},{"iata":"YGQ","icao":"CYGQ","name":"Geraldton Greenstone Regional Airport","city":"Geraldton","country":"Canada","lat":49.77830123901367,"lon":-86.93939971923828},{"iata":"YGR","icao":"CYGR","name":"Îles-de-la-Madeleine Airport","city":"Iles De La Madeleine","country":"Canada","lat":47.42470169067383,"lon":-61.778099060058594},{"iata":"YHB","icao":"CYHB","name":"Hudson Bay Airport","city":"Hudson Bay","country":"Canada","lat":52.8166999817,"lon":-102.310997009},{"iata":"YHD","icao":"CYHD","name":"Dryden Regional Airport","city":"Dryden","country":"Canada","lat":49.831699,"lon":-92.744202},{"iata":"YHI","icao":"CYHI","name":"Ulukhaktok Holman Airport","city":"Holman Island","country":"Canada","lat":70.76280212402344,"lon":-117.80599975585938},{"iata":"YHK","icao":"CYHK","name":"Gjoa Haven Airport","city":"Gjoa Haven","country":"Canada","lat":68.635597229,"lon":-95.84970092770001},{"iata":"YHM","icao":"CYHM","name":"John C. Munro Hamilton International Airport","city":"Hamilton","country":"Canada","lat":43.173599243199995,"lon":-79.93499755859999},{"iata":"YHU","icao":"CYHU","name":"Montréal / Saint-Hubert Airport","city":"Montreal","country":"Canada","lat":45.5175018311,"lon":-73.4169006348},{"iata":"YHY","icao":"CYHY","name":"Hay River / Merlyn Carter Airport","city":"Hay River","country":"Canada","lat":60.8396987915,"lon":-115.782997131},{"iata":"YHZ","icao":"CYHZ","name":"Halifax / Stanfield International Airport","city":"Halifax","country":"Canada","lat":44.8807983398,"lon":-63.5085983276},{"iata":"YIB","icao":"CYIB","name":"Atikokan Municipal Airport","city":"Atikokan","country":"Canada","lat":48.7738990784,"lon":-91.6386032104},{"iata":"YIO","icao":"CYIO","name":"Pond Inlet Airport","city":"Pond Inlet","country":"Canada","lat":72.6832962036,"lon":-77.9666976929},{"iata":"YJN","icao":"CYJN","name":"St Jean Airport","city":"St. Jean","country":"Canada","lat":45.29439926147461,"lon":-73.28109741210938},{"iata":"YJT","icao":"CYJT","name":"Stephenville Airport","city":"Stephenville","country":"Canada","lat":48.5442008972168,"lon":-58.54999923706055},{"iata":"YKA","icao":"CYKA","name":"Kamloops Airport","city":"Kamloops","country":"Canada","lat":50.7022018433,"lon":-120.444000244},{"iata":"YKF","icao":"CYKF","name":"Waterloo Airport","city":"Waterloo","country":"Canada","lat":43.460800170899994,"lon":-80.3786010742},{"iata":"YKL","icao":"CYKL","name":"Schefferville Airport","city":"Schefferville","country":"Canada","lat":54.805301666259766,"lon":-66.8052978515625},{"iata":"YKY","icao":"CYKY","name":"Kindersley Airport","city":"Kindersley","country":"Canada","lat":51.5175018311,"lon":-109.180999756},{"iata":"YKZ","icao":"CYKZ","name":"Buttonville Municipal Airport","city":"Toronto","country":"Canada","lat":43.86220169067383,"lon":-79.37000274658203},{"iata":"YLD","icao":"CYLD","name":"Chapleau Airport","city":"Chapleau","country":"Canada","lat":47.81999969482422,"lon":-83.3467025756836},{"iata":"YLJ","icao":"CYLJ","name":"Meadow Lake Airport","city":"Meadow Lake","country":"Canada","lat":54.125301361083984,"lon":-108.52300262451172},{"iata":"YLL","icao":"CYLL","name":"Lloydminster Airport","city":"Lloydminster","country":"Canada","lat":53.309200286865234,"lon":-110.072998046875},{"iata":"YLT","icao":"CYLT","name":"Alert Airport","city":"Alert","country":"Canada","lat":82.51779937740001,"lon":-62.2806015015},{"iata":"YLW","icao":"CYLW","name":"Kelowna International Airport","city":"Kelowna","country":"Canada","lat":49.9561004639,"lon":-119.377998352},{"iata":"YMA","icao":"CYMA","name":"Mayo Airport","city":"Mayo","country":"Canada","lat":63.61640167236328,"lon":-135.8679962158203},{"iata":"YMJ","icao":"CYMJ","name":"Moose Jaw Air Vice Marshal C. M. McEwen Airport","city":"Moose Jaw","country":"Canada","lat":50.330299377441406,"lon":-105.55899810791016},{"iata":"YMM","icao":"CYMM","name":"Fort McMurray Airport","city":"Fort Mcmurray","country":"Canada","lat":56.653301239,"lon":-111.222000122},{"iata":"YMO","icao":"CYMO","name":"Moosonee Airport","city":"Moosonee","country":"Canada","lat":51.291099548339844,"lon":-80.60780334472656},{"iata":"YMW","icao":"CYMW","name":"Maniwaki Airport","city":"Maniwaki","country":"Canada","lat":46.2728004456,"lon":-75.9906005859},{"iata":"YMX","icao":"CYMX","name":"Montreal International (Mirabel) Airport","city":"Montreal","country":"Canada","lat":45.679501,"lon":-74.038696},{"iata":"YNA","icao":"CYNA","name":"Natashquan Airport","city":"Natashquan","country":"Canada","lat":50.189998626708984,"lon":-61.78919982910156},{"iata":"YND","icao":"CYND","name":"Ottawa / Gatineau Airport","city":"Gatineau","country":"Canada","lat":45.521701812699995,"lon":-75.5635986328},{"iata":"YNM","icao":"CYNM","name":"Matagami Airport","city":"Matagami","country":"Canada","lat":49.76169967651367,"lon":-77.80280303955078},{"iata":"YOC","icao":"CYOC","name":"Old Crow Airport","city":"Old Crow","country":"Canada","lat":67.57060241699219,"lon":-139.83900451660156},{"iata":"YOD","icao":"CYOD","name":"CFB Cold Lake","city":"Cold Lake","country":"Canada","lat":54.404998779296875,"lon":-110.27899932861328},{"iata":"YOJ","icao":"CYOJ","name":"High Level Airport","city":"High Level","country":"Canada","lat":58.62139892578125,"lon":-117.16500091552734},{"iata":"YOW","icao":"CYOW","name":"Ottawa Macdonald-Cartier International Airport","city":"Ottawa","country":"Canada","lat":45.3224983215332,"lon":-75.66919708251953},{"iata":"YPA","icao":"CYPA","name":"Prince Albert Glass Field","city":"Prince Albert","country":"Canada","lat":53.214199066199996,"lon":-105.672996521},{"iata":"YPE","icao":"CYPE","name":"Peace River Airport","city":"Peace River","country":"Canada","lat":56.226898,"lon":-117.446999},{"iata":"YPG","icao":"CYPG","name":"Southport Airport","city":"Portage-la-prairie","country":"Canada","lat":49.903099,"lon":-98.273817},{"iata":"YPL","icao":"CYPL","name":"Pickle Lake Airport","city":"Pickle Lake","country":"Canada","lat":51.4463996887207,"lon":-90.21420288085938},{"iata":"YPN","icao":"CYPN","name":"Port Menier Airport","city":"Port Menier","country":"Canada","lat":49.83639907836914,"lon":-64.2885971069336},{"iata":"YPQ","icao":"CYPQ","name":"Peterborough Airport","city":"Peterborough","country":"Canada","lat":44.22999954223633,"lon":-78.36329650878906},{"iata":"YPR","icao":"CYPR","name":"Prince Rupert Airport","city":"Prince Pupert","country":"Canada","lat":54.286098480199996,"lon":-130.445007324},{"iata":"YPY","icao":"CYPY","name":"Fort Chipewyan Airport","city":"Fort Chipewyan","country":"Canada","lat":58.7672004699707,"lon":-111.11699676513672},{"iata":"YQA","icao":"CYQA","name":"Muskoka Airport","city":"Muskoka","country":"Canada","lat":44.974700927734375,"lon":-79.30329895019531},{"iata":"YQB","icao":"CYQB","name":"Quebec Jean Lesage International Airport","city":"Quebec","country":"Canada","lat":46.7911,"lon":-71.393303},{"iata":"YQF","icao":"CYQF","name":"Red Deer Regional Airport","city":"Red Deer Industrial","country":"Canada","lat":52.18220138549805,"lon":-113.89399719238281},{"iata":"YQG","icao":"CYQG","name":"Windsor Airport","city":"Windsor","country":"Canada","lat":42.27560043334961,"lon":-82.95559692382812},{"iata":"YQH","icao":"CYQH","name":"Watson Lake Airport","city":"Watson Lake","country":"Canada","lat":60.11640167236328,"lon":-128.82200622558594},{"iata":"YQK","icao":"CYQK","name":"Kenora Airport","city":"Kenora","country":"Canada","lat":49.788299560546875,"lon":-94.36309814453125},{"iata":"YQL","icao":"CYQL","name":"Lethbridge County Airport","city":"Lethbridge","country":"Canada","lat":49.6302986145,"lon":-112.800003052},{"iata":"YQM","icao":"CYQM","name":"Greater Moncton International Airport","city":"Moncton","country":"Canada","lat":46.11220169067383,"lon":-64.67859649658203},{"iata":"YQQ","icao":"CYQQ","name":"Comox Airport","city":"Comox","country":"Canada","lat":49.71080017089844,"lon":-124.88700103759766},{"iata":"YQR","icao":"CYQR","name":"Regina International Airport","city":"Regina","country":"Canada","lat":50.43190002441406,"lon":-104.66600036621094},{"iata":"YQT","icao":"CYQT","name":"Thunder Bay Airport","city":"Thunder Bay","country":"Canada","lat":48.37189865112305,"lon":-89.32389831542969},{"iata":"YQU","icao":"CYQU","name":"Grande Prairie Airport","city":"Grande Prairie","country":"Canada","lat":55.1796989441,"lon":-118.885002136},{"iata":"YQV","icao":"CYQV","name":"Yorkton Municipal Airport","city":"Yorkton","country":"Canada","lat":51.26470184326172,"lon":-102.46199798583984},{"iata":"YQW","icao":"CYQW","name":"North Battleford Airport","city":"North Battleford","country":"Canada","lat":52.76919937133789,"lon":-108.24400329589844},{"iata":"YQX","icao":"CYQX","name":"Gander International Airport","city":"Gander","country":"Canada","lat":48.9369010925293,"lon":-54.56809997558594},{"iata":"YQY","icao":"CYQY","name":"Sydney / J.A. Douglas McCurdy Airport","city":"Sydney","country":"Canada","lat":46.1614,"lon":-60.047798},{"iata":"YQZ","icao":"CYQZ","name":"Quesnel Airport","city":"Quesnel","country":"Canada","lat":53.026100158691406,"lon":-122.51000213623047},{"iata":"YRB","icao":"CYRB","name":"Resolute Bay Airport","city":"Resolute","country":"Canada","lat":74.7169036865,"lon":-94.9693984985},{"iata":"YRI","icao":"CYRI","name":"Rivière-du-Loup Airport","city":"Riviere Du Loup","country":"Canada","lat":47.764400482177734,"lon":-69.58470153808594},{"iata":"YRJ","icao":"CYRJ","name":"Roberval Airport","city":"Roberval","country":"Canada","lat":48.52000045776367,"lon":-72.2656021118164},{"iata":"YRM","icao":"CYRM","name":"Rocky Mountain House Airport","city":"Rocky Mountain House","country":"Canada","lat":52.4296989441,"lon":-114.903999329},{"iata":"YRT","icao":"CYRT","name":"Rankin Inlet Airport","city":"Rankin Inlet","country":"Canada","lat":62.8114013672,"lon":-92.1157989502},{"iata":"YSB","icao":"CYSB","name":"Sudbury Airport","city":"Sudbury","country":"Canada","lat":46.625,"lon":-80.79889678955078},{"iata":"YSC","icao":"CYSC","name":"Sherbrooke Airport","city":"Sherbrooke","country":"Canada","lat":45.4385986328125,"lon":-71.69139862060547},{"iata":"YSJ","icao":"CYSJ","name":"Saint John Airport","city":"St. John","country":"Canada","lat":45.31610107421875,"lon":-65.89029693603516},{"iata":"YSM","icao":"CYSM","name":"Fort Smith Airport","city":"Fort Smith","country":"Canada","lat":60.020301818847656,"lon":-111.96199798583984},{"iata":"YSR","icao":"CYSR","name":"Nanisivik Airport","city":"Nanisivik","country":"Canada","lat":72.982201,"lon":-84.613602},{"iata":"YSU","icao":"CYSU","name":"Summerside Airport","city":"Summerside","country":"Canada","lat":46.44060134887695,"lon":-63.83359909057617},{"iata":"YSY","icao":"CYSY","name":"Sachs Harbour (David Nasogaluak Jr. Saaryuaq) Airport","city":"Sachs Harbour","country":"Canada","lat":71.9938964844,"lon":-125.242996216},{"iata":"YTE","icao":"CYTE","name":"Cape Dorset Airport","city":"Cape Dorset","country":"Canada","lat":64.2300033569,"lon":-76.5267028809},{"iata":"YTH","icao":"CYTH","name":"Thompson Airport","city":"Thompson","country":"Canada","lat":55.80110168457031,"lon":-97.86419677734375},{"iata":"YTR","icao":"CYTR","name":"CFB Trenton","city":"Trenton","country":"Canada","lat":44.118900299072266,"lon":-77.5280990600586},{"iata":"YTS","icao":"CYTS","name":"Timmins/Victor M. Power","city":"Timmins","country":"Canada","lat":48.569698333699996,"lon":-81.376701355},{"iata":"YTZ","icao":"CYTZ","name":"Billy Bishop Toronto City Centre Airport","city":"Toronto","country":"Canada","lat":43.627499,"lon":-79.396202},{"iata":"YUB","icao":"CYUB","name":"Tuktoyaktuk Airport","city":"Tuktoyaktuk","country":"Canada","lat":69.43329620361328,"lon":-133.0260009765625},{"iata":"YUL","icao":"CYUL","name":"Montreal / Pierre Elliott Trudeau International Airport","city":"Montreal","country":"Canada","lat":45.4706001282,"lon":-73.7407989502},{"iata":"YUT","icao":"CYUT","name":"Repulse Bay Airport","city":"Repulse Bay","country":"Canada","lat":66.5214004517,"lon":-86.22470092770001},{"iata":"YUX","icao":"CYUX","name":"Hall Beach Airport","city":"Hall Beach","country":"Canada","lat":68.77610015869999,"lon":-81.2425},{"iata":"YUY","icao":"CYUY","name":"Rouyn Noranda Airport","city":"Rouyn","country":"Canada","lat":48.20610046386719,"lon":-78.83560180664062},{"iata":"YVC","icao":"CYVC","name":"La Ronge Airport","city":"La Ronge","country":"Canada","lat":55.151401519800004,"lon":-105.262001038},{"iata":"YVG","icao":"CYVG","name":"Vermilion Airport","city":"Vermillion","country":"Canada","lat":53.355800628699996,"lon":-110.823997498},{"iata":"YVM","icao":"CYVM","name":"Qikiqtarjuaq Airport","city":"Broughton Island","country":"Canada","lat":67.5457992554,"lon":-64.03140258789999},{"iata":"YVO","icao":"CYVO","name":"Val-d'Or Airport","city":"Val D'or","country":"Canada","lat":48.0532989502,"lon":-77.7827987671},{"iata":"YVP","icao":"CYVP","name":"Kuujjuaq Airport","city":"Quujjuaq","country":"Canada","lat":58.096099853515625,"lon":-68.4269027709961},{"iata":"YVQ","icao":"CYVQ","name":"Norman Wells Airport","city":"Norman Wells","country":"Canada","lat":65.28160095214844,"lon":-126.7979965209961},{"iata":"YVR","icao":"CYVR","name":"Vancouver International Airport","city":"Vancouver","country":"Canada","lat":49.193901062,"lon":-123.183998108},{"iata":"YVT","icao":"CYVT","name":"Buffalo Narrows Airport","city":"Buffalo Narrows","country":"Canada","lat":55.8418998718,"lon":-108.417999268},{"iata":"YVV","icao":"CYVV","name":"Wiarton Airport","city":"Wiarton","country":"Canada","lat":44.7458,"lon":-81.107201},{"iata":"YWA","icao":"CYWA","name":"Petawawa Airport","city":"Petawawa","country":"Canada","lat":45.95220184326172,"lon":-77.31919860839844},{"iata":"YWG","icao":"CYWG","name":"Winnipeg / James Armstrong Richardson International Airport","city":"Winnipeg","country":"Canada","lat":49.909999847399995,"lon":-97.2398986816},{"iata":"YWK","icao":"CYWK","name":"Wabush Airport","city":"Wabush","country":"Canada","lat":52.92190170288086,"lon":-66.8644027709961},{"iata":"YWL","icao":"CYWL","name":"Williams Lake Airport","city":"Williams Lake","country":"Canada","lat":52.1831016541,"lon":-122.054000854},{"iata":"YWY","icao":"CYWY","name":"Wrigley Airport","city":"Wrigley","country":"Canada","lat":63.20940017700195,"lon":-123.43699645996094},{"iata":"YXC","icao":"CYXC","name":"Cranbrook/Canadian Rockies International Airport","city":"Cranbrook","country":"Canada","lat":49.610801696777,"lon":-115.78199768066},{"iata":"YXD","icao":"CYXD","name":"Edmonton City Centre (Blatchford Field) Airport","city":"Edmonton","country":"Canada","lat":53.5724983215,"lon":-113.521003723},{"iata":"YXE","icao":"CYXE","name":"Saskatoon John G. Diefenbaker International Airport","city":"Saskatoon","country":"Canada","lat":52.170799255371094,"lon":-106.69999694824219},{"iata":"YXH","icao":"CYXH","name":"Medicine Hat Airport","city":"Medicine Hat","country":"Canada","lat":50.01890182495117,"lon":-110.72100067138672},{"iata":"YXJ","icao":"CYXJ","name":"Fort St John Airport","city":"Fort Saint John","country":"Canada","lat":56.23809814453125,"lon":-120.73999786376953},{"iata":"YXL","icao":"CYXL","name":"Sioux Lookout Airport","city":"Sioux Lookout","country":"Canada","lat":50.11389923095703,"lon":-91.9052963256836},{"iata":"YXP","icao":"CYXP","name":"Pangnirtung Airport","city":"Pangnirtung","country":"Canada","lat":66.1449966431,"lon":-65.71360015869999},{"iata":"YXR","icao":"CYXR","name":"Earlton (Timiskaming Regional) Airport","city":"Earlton","country":"Canada","lat":47.697400654599996,"lon":-79.8473453522},{"iata":"YXS","icao":"CYXS","name":"Prince George Airport","city":"Prince George","country":"Canada","lat":53.8894004822,"lon":-122.679000854},{"iata":"YXT","icao":"CYXT","name":"Northwest Regional Airport Terrace-Kitimat","city":"Terrace","country":"Canada","lat":54.468498,"lon":-128.576009},{"iata":"YXU","icao":"CYXU","name":"London Airport","city":"London","country":"Canada","lat":43.035599,"lon":-81.1539},{"iata":"YXX","icao":"CYXX","name":"Abbotsford Airport","city":"Abbotsford","country":"Canada","lat":49.025299072265625,"lon":-122.36100006103516},{"iata":"YXY","icao":"CYXY","name":"Whitehorse / Erik Nielsen International Airport","city":"Whitehorse","country":"Canada","lat":60.7095985413,"lon":-135.067001343},{"iata":"YYB","icao":"CYYB","name":"North Bay Jack Garland Airport","city":"North Bay","country":"Canada","lat":46.363602,"lon":-79.422798},{"iata":"YYC","icao":"CYYC","name":"Calgary International Airport","city":"Calgary","country":"Canada","lat":51.113899231,"lon":-114.019996643},{"iata":"YYD","icao":"CYYD","name":"Smithers Airport","city":"Smithers","country":"Canada","lat":54.82469940185547,"lon":-127.18299865722656},{"iata":"YYE","icao":"CYYE","name":"Fort Nelson Airport","city":"Fort Nelson","country":"Canada","lat":58.8363990784,"lon":-122.597000122},{"iata":"YYF","icao":"CYYF","name":"Penticton Airport","city":"Penticton","country":"Canada","lat":49.46310043334961,"lon":-119.60199737548828},{"iata":"YYG","icao":"CYYG","name":"Charlottetown Airport","city":"Charlottetown","country":"Canada","lat":46.290000915527344,"lon":-63.12110137939453},{"iata":"YYH","icao":"CYYH","name":"Taloyoak Airport","city":"Spence Bay","country":"Canada","lat":69.5466995239,"lon":-93.5766983032},{"iata":"YYJ","icao":"CYYJ","name":"Victoria International Airport","city":"Victoria","country":"Canada","lat":48.646900177,"lon":-123.426002502},{"iata":"YYL","icao":"CYYL","name":"Lynn Lake Airport","city":"Lynn Lake","country":"Canada","lat":56.86389923095703,"lon":-101.07599639892578},{"iata":"YYN","icao":"CYYN","name":"Swift Current Airport","city":"Swift Current","country":"Canada","lat":50.291900634799994,"lon":-107.691001892},{"iata":"YYQ","icao":"CYYQ","name":"Churchill Airport","city":"Churchill","country":"Canada","lat":58.739200592041016,"lon":-94.06500244140625},{"iata":"YYR","icao":"CYYR","name":"Goose Bay Airport","city":"Goose Bay","country":"Canada","lat":53.3191986084,"lon":-60.4258003235},{"iata":"YYT","icao":"CYYT","name":"St. John's International Airport","city":"St. John's","country":"Canada","lat":47.618598938,"lon":-52.7518997192},{"iata":"YYU","icao":"CYYU","name":"Kapuskasing Airport","city":"Kapuskasing","country":"Canada","lat":49.41389846801758,"lon":-82.46749877929688},{"iata":"YYW","icao":"CYYW","name":"Armstrong Airport","city":"Armstrong","country":"Canada","lat":50.29029846191406,"lon":-88.90969848632812},{"iata":"YYY","icao":"CYYY","name":"Mont Joli Airport","city":"Mont Joli","country":"Canada","lat":48.60860061645508,"lon":-68.20809936523438},{"iata":"YYZ","icao":"CYYZ","name":"Lester B. Pearson International Airport","city":"Toronto","country":"Canada","lat":43.6772003174,"lon":-79.63059997559999},{"iata":"YZD","icao":"CYZD","name":"Downsview Airport","city":"Toronto","country":"Canada","lat":43.74250030517578,"lon":-79.4655990600586},{"iata":"YZE","icao":"CYZE","name":"Gore Bay Manitoulin Airport","city":"Gore Bay","country":"Canada","lat":45.88529968261719,"lon":-82.56780242919922},{"iata":"YZF","icao":"CYZF","name":"Yellowknife Airport","city":"Yellowknife","country":"Canada","lat":62.462799072265625,"lon":-114.44000244140625},{"iata":"YZH","icao":"CYZH","name":"Slave Lake Airport","city":"Slave Lake","country":"Canada","lat":55.2930984497,"lon":-114.777000427},{"iata":"YZP","icao":"CYZP","name":"Sandspit Airport","city":"Sandspit","country":"Canada","lat":53.25429916379999,"lon":-131.813995361},{"iata":"YZR","icao":"CYZR","name":"Chris Hadfield Airport","city":"Sarnia","country":"Canada","lat":42.9994010925293,"lon":-82.30889892578125},{"iata":"YZT","icao":"CYZT","name":"Port Hardy Airport","city":"Port Hardy","country":"Canada","lat":50.680599212646484,"lon":-127.36699676513672},{"iata":"YZU","icao":"CYZU","name":"Whitecourt Airport","city":"Whitecourt","country":"Canada","lat":54.14390182495117,"lon":-115.78700256347656},{"iata":"YZV","icao":"CYZV","name":"Sept-Îles Airport","city":"Sept-iles","country":"Canada","lat":50.22330093383789,"lon":-66.2656021118164},{"iata":"YZW","icao":"CYZW","name":"Teslin Airport","city":"Teslin","country":"Canada","lat":60.17279815673828,"lon":-132.7429962158203},{"iata":"YZX","icao":"CYZX","name":"CFB Greenwood","city":"Greenwood","country":"Canada","lat":44.98440170288086,"lon":-64.91690063476562},{"iata":"ZFA","icao":"CZFA","name":"Faro Airport","city":"Faro","country":"Canada","lat":62.20750045776367,"lon":-133.37600708007812},{"iata":"ZFM","icao":"CZFM","name":"Fort Mcpherson Airport","city":"Fort Mcpherson","country":"Canada","lat":67.40750122070312,"lon":-134.86099243164062},{"iata":"QLD","icao":"DAAB","name":"Blida Airport","city":"Blida","country":"Algeria","lat":36.50360107421875,"lon":2.8141698837280273},{"iata":"BUJ","icao":"DAAD","name":"Bou Saada Airport","city":"Bou Saada","country":"Algeria","lat":35.33250045776367,"lon":4.206389904022217},{"iata":"BJA","icao":"DAAE","name":"Soummam Airport","city":"Bejaja","country":"Algeria","lat":36.7120018005,"lon":5.0699200630200005},{"iata":"ALG","icao":"DAAG","name":"Houari Boumediene Airport","city":"Algier","country":"Algeria","lat":36.691001892089844,"lon":3.215409994125366},{"iata":"DJG","icao":"DAAJ","name":"Djanet Inedbirene Airport","city":"Djanet","country":"Algeria","lat":24.292801,"lon":9.45244},{"iata":"VVZ","icao":"DAAP","name":"Illizi Takhamalt Airport","city":"Illizi","country":"Algeria","lat":26.7234992981,"lon":8.62265014648},{"iata":"TMR","icao":"DAAT","name":"Aguenar – Hadj Bey Akhamok Airport","city":"Tamanrasset","country":"Algeria","lat":22.8115005493,"lon":5.45107984543},{"iata":"GJL","icao":"DAAV","name":"Jijel Ferhat Abbas Airport","city":"Jijel","country":"Algeria","lat":36.7951011658,"lon":5.87361001968},{"iata":"MZW","icao":"DAAY","name":"Mecheria Airport","city":"Mecheria","country":"Algeria","lat":33.535900116,"lon":-0.242353007197},{"iata":"AAE","icao":"DABB","name":"Rabah Bitat Airport","city":"Annaba","country":"Algeria","lat":36.822201,"lon":7.809174},{"iata":"CZL","icao":"DABC","name":"Mohamed Boudiaf International Airport","city":"Constantine","country":"Algeria","lat":36.2760009765625,"lon":6.620389938354492},{"iata":"TEE","icao":"DABS","name":"Cheikh Larbi Tébessi Airport","city":"Tebessa","country":"Algeria","lat":35.4315986633,"lon":8.12071990967},{"iata":"HRM","icao":"DAFH","name":"Hassi R'Mel Airport","city":"Tilrempt","country":"Algeria","lat":32.93040084838867,"lon":3.311539888381958},{"iata":"TID","icao":"DAOB","name":"Bou Chekif Airport","city":"Tiaret","country":"Algeria","lat":35.3410987854,"lon":1.46315002441},{"iata":"TIN","icao":"DAOF","name":"Tindouf Airport","city":"Tindouf","country":"Algeria","lat":27.7003993988,"lon":-8.167099952700001},{"iata":"CFK","icao":"DAOI","name":"Ech Cheliff Airport","city":"Ech-cheliff","country":"Algeria","lat":36.2126998901,"lon":1.33176994324},{"iata":"TAF","icao":"DAOL","name":"Tafaraoui Airport","city":"Oran","country":"Algeria","lat":35.54240036010742,"lon":-0.5322780013084412},{"iata":"TLM","icao":"DAON","name":"Zenata – Messali El Hadj Airport","city":"Tlemcen","country":"Algeria","lat":35.0167007446,"lon":-1.45000004768},{"iata":"ORN","icao":"DAOO","name":"Es Senia Airport","city":"Oran","country":"Algeria","lat":35.6239013672,"lon":-0.6211829781529999},{"iata":"BFW","icao":"DAOS","name":"Sidi Bel Abbes Airport","city":"Sidi Bel Abbes","country":"Algeria","lat":35.1717987061,"lon":-0.593275010586},{"iata":"MUW","icao":"DAOV","name":"Ghriss Airport","city":"Ghriss","country":"Algeria","lat":35.207698822021484,"lon":0.14714199304580688},{"iata":"AZR","icao":"DAUA","name":"Touat Cheikh Sidi Mohamed Belkebir Airport","city":"Adrar","country":"Algeria","lat":27.837600708007812,"lon":-0.18641400337219238},{"iata":"BSK","icao":"DAUB","name":"Biskra Airport","city":"Biskra","country":"Algeria","lat":34.793300628699996,"lon":5.73823022842},{"iata":"ELG","icao":"DAUE","name":"El Golea Airport","city":"El Golea","country":"Algeria","lat":30.571300506591797,"lon":2.8595900535583496},{"iata":"GHA","icao":"DAUG","name":"Noumérat - Moufdi Zakaria Airport","city":"Ghardaia","country":"Algeria","lat":32.38410186767578,"lon":3.794110059738159},{"iata":"HME","icao":"DAUH","name":"Oued Irara Airport","city":"Hassi Messaoud","country":"Algeria","lat":31.673000335699996,"lon":6.140439987180001},{"iata":"INZ","icao":"DAUI","name":"In Salah Airport","city":"In Salah","country":"Algeria","lat":27.250999450699997,"lon":2.51202011108},{"iata":"TGR","icao":"DAUK","name":"Touggourt Sidi Madhi Airport","city":"Touggourt","country":"Algeria","lat":33.06779861450195,"lon":6.088669776916504},{"iata":"LOO","icao":"DAUL","name":"Laghouat Airport","city":"Laghouat","country":"Algeria","lat":33.764400482199996,"lon":2.92833995819},{"iata":"TMX","icao":"DAUT","name":"Timimoun Airport","city":"Timimoun","country":"Algeria","lat":29.2371006012,"lon":0.276033014059},{"iata":"OGX","icao":"DAUU","name":"Ain el Beida Airport","city":"Ouargla","country":"Algeria","lat":31.917200088500977,"lon":5.412779808044434},{"iata":"IAM","icao":"DAUZ","name":"In Aménas Airport","city":"Zarzaitine","country":"Algeria","lat":28.0515,"lon":9.64291},{"iata":"COO","icao":"DBBB","name":"Cadjehoun Airport","city":"Cotonou","country":"Benin","lat":6.357230186462402,"lon":2.384350061416626},{"iata":"OUA","icao":"DFFD","name":"Ouagadougou Airport","city":"Ouagadougou","country":"Burkina Faso","lat":12.3532,"lon":-1.51242},{"iata":"BOY","icao":"DFOO","name":"Bobo Dioulasso Airport","city":"Bobo-dioulasso","country":"Burkina Faso","lat":11.160099983215332,"lon":-4.33096981048584},{"iata":"ACC","icao":"DGAA","name":"Kotoka International Airport","city":"Accra","country":"Ghana","lat":5.605189800262451,"lon":-0.16678600013256073},{"iata":"TML","icao":"DGLE","name":"Tamale Airport","city":"Tamale","country":"Ghana","lat":9.55718994140625,"lon":-0.8632140159606934},{"iata":"NYI","icao":"DGSN","name":"Sunyani Airport","city":"Sunyani","country":"Ghana","lat":7.361830234527588,"lon":-2.3287599086761475},{"iata":"TKD","icao":"DGTK","name":"Takoradi Airport","city":"Takoradi","country":"Ghana","lat":4.896059989929199,"lon":-1.7747600078582764},{"iata":"ABJ","icao":"DIAP","name":"Port Bouet Airport","city":"Abidjan","country":"Cote d'Ivoire","lat":5.261390209197998,"lon":-3.9262900352478027},{"iata":"BYK","icao":"DIBK","name":"Bouaké Airport","city":"Bouake","country":"Cote d'Ivoire","lat":7.738800048828125,"lon":-5.073669910430908},{"iata":"DJO","icao":"DIDL","name":"Daloa Airport","city":"Daloa","country":"Cote d'Ivoire","lat":6.792809963226318,"lon":-6.473189830780029},{"iata":"HGO","icao":"DIKO","name":"Korhogo Airport","city":"Korhogo","country":"Cote d'Ivoire","lat":9.38718032837,"lon":-5.55666017532},{"iata":"MJC","icao":"DIMN","name":"Man Airport","city":"Man","country":"Cote d'Ivoire","lat":7.272069931030273,"lon":-7.58735990524292},{"iata":"SPY","icao":"DISP","name":"San Pedro Airport","city":"San Pedro","country":"Cote d'Ivoire","lat":4.746719837188721,"lon":-6.660820007324219},{"iata":"ASK","icao":"DIYO","name":"Yamoussoukro Airport","city":"Yamoussoukro","country":"Cote d'Ivoire","lat":6.9031701088,"lon":-5.36558008194},{"iata":"ABV","icao":"DNAA","name":"Nnamdi Azikiwe International Airport","city":"Abuja","country":"Nigeria","lat":9.006790161132812,"lon":7.263169765472412},{"iata":"AKR","icao":"DNAK","name":"Akure Airport","city":"Akure","country":"Nigeria","lat":7.246739864349365,"lon":5.3010101318359375},{"iata":"BNI","icao":"DNBE","name":"Benin Airport","city":"Benin","country":"Nigeria","lat":6.316979885101318,"lon":5.5995001792907715},{"iata":"CBQ","icao":"DNCA","name":"Margaret Ekpo International Airport","city":"Calabar","country":"Nigeria","lat":4.976019859313965,"lon":8.347200393676758},{"iata":"ENU","icao":"DNEN","name":"Akanu Ibiam International Airport","city":"Enugu","country":"Nigeria","lat":6.474269866943359,"lon":7.561960220336914},{"iata":"IBA","icao":"DNIB","name":"Ibadan Airport","city":"Ibadan","country":"Nigeria","lat":7.362460136413574,"lon":3.97832989692688},{"iata":"ILR","icao":"DNIL","name":"Ilorin International Airport","city":"Ilorin","country":"Nigeria","lat":8.440210342407227,"lon":4.493919849395752},{"iata":"JOS","icao":"DNJO","name":"Yakubu Gowon Airport","city":"Jos","country":"Nigeria","lat":9.639829635620117,"lon":8.869050025939941},{"iata":"KAD","icao":"DNKA","name":"Kaduna Airport","city":"Kaduna","country":"Nigeria","lat":10.696000099182129,"lon":7.320109844207764},{"iata":"KAN","icao":"DNKN","name":"Mallam Aminu International Airport","city":"Kano","country":"Nigeria","lat":12.0476,"lon":8.52462},{"iata":"MIU","icao":"DNMA","name":"Maiduguri International Airport","city":"Maiduguri","country":"Nigeria","lat":11.855299949645996,"lon":13.080900192260742},{"iata":"MDI","icao":"DNMK","name":"Makurdi Airport","city":"Makurdi","country":"Nigeria","lat":7.70388,"lon":8.61394},{"iata":"LOS","icao":"DNMM","name":"Murtala Muhammed International Airport","city":"Lagos","country":"Nigeria","lat":6.5773701667785645,"lon":3.321160078048706},{"iata":"MXJ","icao":"DNMN","name":"Minna Airport","city":"Minna","country":"Nigeria","lat":9.652170181274414,"lon":6.462259769439697},{"iata":"PHC","icao":"DNPO","name":"Port Harcourt International Airport","city":"Port Hartcourt","country":"Nigeria","lat":5.0154900550842285,"lon":6.94959020614624},{"iata":"SKO","icao":"DNSO","name":"Sadiq Abubakar III International Airport","city":"Sokoto","country":"Nigeria","lat":12.916299819946289,"lon":5.207190036773682},{"iata":"YOL","icao":"DNYO","name":"Yola Airport","city":"Yola","country":"Nigeria","lat":9.257550239562988,"lon":12.430399894714355},{"iata":"ZAR","icao":"DNZA","name":"Zaria Airport","city":"Zaria","country":"Nigeria","lat":11.1302,"lon":7.68581},{"iata":"MFQ","icao":"DRRM","name":"Maradi Airport","city":"Maradi","country":"Niger","lat":13.5024995803833,"lon":7.1267499923706055},{"iata":"NIM","icao":"DRRN","name":"Diori Hamani International Airport","city":"Niamey","country":"Niger","lat":13.4815,"lon":2.18361},{"iata":"THZ","icao":"DRRT","name":"Tahoua Airport","city":"Tahoua","country":"Niger","lat":14.875699996948242,"lon":5.265359878540039},{"iata":"AJY","icao":"DRZA","name":"Mano Dayak International Airport","city":"Agadez","country":"Niger","lat":16.965999603271484,"lon":8.000109672546387},{"iata":"ZND","icao":"DRZR","name":"Zinder Airport","city":"Zinder","country":"Niger","lat":13.779000282287598,"lon":8.983759880065918},{"iata":"MIR","icao":"DTMB","name":"Monastir Habib Bourguiba International Airport","city":"Monastir","country":"Tunisia","lat":35.75809860229492,"lon":10.75469970703125},{"iata":"TUN","icao":"DTTA","name":"Tunis Carthage International Airport","city":"Tunis","country":"Tunisia","lat":36.85100173950195,"lon":10.22719955444336},{"iata":"GAF","icao":"DTTF","name":"Gafsa Ksar International Airport","city":"Gafsa","country":"Tunisia","lat":34.422000885009766,"lon":8.822500228881836},{"iata":"GAE","icao":"DTTG","name":"Gabès Matmata International Airport","city":"Gabes","country":"Tunisia","lat":33.87689971923828,"lon":10.103300094604492},{"iata":"DJE","icao":"DTTJ","name":"Djerba Zarzis International Airport","city":"Djerba","country":"Tunisia","lat":33.875,"lon":10.775500297546387},{"iata":"EBM","icao":"DTTR","name":"El Borma Airport","city":"El Borma","country":"Tunisia","lat":31.704299926757812,"lon":9.254619598388672},{"iata":"SFA","icao":"DTTX","name":"Sfax Thyna International Airport","city":"Sfax","country":"Tunisia","lat":34.71799850463867,"lon":10.690999984741211},{"iata":"TOE","icao":"DTTZ","name":"Tozeur Nefta International Airport","city":"Tozeur","country":"Tunisia","lat":33.939701080322266,"lon":8.110560417175293},{"iata":"LRL","icao":"DXNG","name":"Niamtougou International Airport","city":"Niatougou","country":"Togo","lat":9.767330169677734,"lon":1.091249942779541},{"iata":"LFW","icao":"DXXX","name":"Lomé-Tokoin Airport","city":"Lome","country":"Togo","lat":6.165609836578369,"lon":1.2545100450515747},{"iata":"ANR","icao":"EBAW","name":"Antwerp International Airport (Deurne)","city":"Antwerp","country":"Belgium","lat":51.1893997192,"lon":4.46027994156},{"iata":"BRU","icao":"EBBR","name":"Brussels Airport","city":"Brussels","country":"Belgium","lat":50.901401519800004,"lon":4.48443984985},{"iata":"CRL","icao":"EBCI","name":"Brussels South Charleroi Airport","city":"Charleroi","country":"Belgium","lat":50.459202,"lon":4.45382},{"iata":"KJK","icao":"EBKT","name":"Wevelgem Airport","city":"Kortrijk-vevelgem","country":"Belgium","lat":50.817199707,"lon":3.20472002029},{"iata":"LGG","icao":"EBLG","name":"Liège Airport","city":"Liege","country":"Belgium","lat":50.63740158081055,"lon":5.443220138549805},{"iata":"OST","icao":"EBOS","name":"Ostend-Bruges International Airport","city":"Ostend","country":"Belgium","lat":51.198898315399994,"lon":2.8622200489},{"iata":"OBL","icao":"EBZR","name":"Zoersel (Oostmalle) Airfield","city":"Zoersel","country":"Belgium","lat":51.264702,"lon":4.75333},{"iata":"AOC","icao":"EDAC","name":"Altenburg-Nobitz Airport","city":"Altenburg","country":"Germany","lat":50.981945,"lon":12.506389},{"iata":"IES","icao":"EDAU","name":"Riesa-Göhlis Airport","city":"Riesa","country":"Germany","lat":51.2936096191,"lon":13.3561105728},{"iata":"REB","icao":"EDAX","name":"Rechlin-Lärz Airport","city":"Rechlin-laerz","country":"Germany","lat":53.306388855,"lon":12.7522220612},{"iata":"QXH","icao":"EDAZ","name":"Schönhagen Airport","city":"Schoenhagen","country":"Germany","lat":52.203609,"lon":13.156389},{"iata":"BBH","icao":"EDBH","name":"Barth Airport","city":"Barth","country":"Germany","lat":54.338253,"lon":12.710515},{"iata":"ZMG","icao":"EDBM","name":"Magdeburg \"\"City\"\" Airport","city":"Magdeburg","country":"Germany","lat":52.073612,"lon":11.626389},{"iata":"CBU","icao":"EDCD","name":"Cottbus-Drewitz Airport","city":"Cottbus","country":"Germany","lat":51.889442,"lon":14.531944},{"iata":"SXF","icao":"EDDB","name":"Berlin-Schönefeld Airport","city":"Berlin","country":"Germany","lat":52.380001,"lon":13.5225},{"iata":"DRS","icao":"EDDC","name":"Dresden Airport","city":"Dresden","country":"Germany","lat":51.1328010559082,"lon":13.767200469970703},{"iata":"ERF","icao":"EDDE","name":"Erfurt Airport","city":"Erfurt","country":"Germany","lat":50.979801177978516,"lon":10.958100318908691},{"iata":"FRA","icao":"EDDF","name":"Frankfurt am Main Airport","city":"Frankfurt","country":"Germany","lat":50.033333,"lon":8.570556},{"iata":"FMO","icao":"EDDG","name":"Münster Osnabrück Airport","city":"Munster","country":"Germany","lat":52.134601593,"lon":7.68483018875},{"iata":"HAM","icao":"EDDH","name":"Hamburg Airport","city":"Hamburg","country":"Germany","lat":53.630401611328,"lon":9.9882297515869},{"iata":"THF","icao":"EDDI","name":"Berlin-Tempelhof International Airport","city":"Berlin","country":"Germany","lat":52.472999572753906,"lon":13.403900146484375},{"iata":"CGN","icao":"EDDK","name":"Cologne Bonn Airport","city":"Cologne","country":"Germany","lat":50.8658981323,"lon":7.1427397728},{"iata":"DUS","icao":"EDDL","name":"Düsseldorf Airport","city":"Duesseldorf","country":"Germany","lat":51.289501,"lon":6.76678},{"iata":"MUC","icao":"EDDM","name":"Munich Airport","city":"Munich","country":"Germany","lat":48.353802,"lon":11.7861},{"iata":"NUE","icao":"EDDN","name":"Nuremberg Airport","city":"Nuernberg","country":"Germany","lat":49.498699,"lon":11.078056},{"iata":"LEJ","icao":"EDDP","name":"Leipzig/Halle Airport","city":"Leipzig","country":"Germany","lat":51.423889,"lon":12.236389},{"iata":"SCN","icao":"EDDR","name":"Saarbrücken Airport","city":"Saarbruecken","country":"Germany","lat":49.214599609400004,"lon":7.10950994492},{"iata":"STR","icao":"EDDS","name":"Stuttgart Airport","city":"Stuttgart","country":"Germany","lat":48.689899444599995,"lon":9.22196006775},{"iata":"TXL","icao":"EDDT","name":"Berlin-Tegel Airport","city":"Berlin","country":"Germany","lat":52.5597,"lon":13.2877},{"iata":"HAJ","icao":"EDDV","name":"Hannover Airport","city":"Hannover","country":"Germany","lat":52.461101532,"lon":9.685079574580001},{"iata":"BRE","icao":"EDDW","name":"Bremen Airport","city":"Bremen","country":"Germany","lat":53.0475006104,"lon":8.78666973114},{"iata":"QEF","icao":"EDFE","name":"Frankfurt-Egelsbach Airport","city":"Egelsbach","country":"Germany","lat":49.959999,"lon":8.645833},{"iata":"HHN","icao":"EDFH","name":"Frankfurt-Hahn Airport","city":"Hahn","country":"Germany","lat":49.9487,"lon":7.26389},{"iata":"MHG","icao":"EDFM","name":"Mannheim-City Airport","city":"Mannheim","country":"Germany","lat":49.473057,"lon":8.514167},{"iata":"EIB","icao":"EDGE","name":"Eisenach-Kindel Airport","city":"Eisenach","country":"Germany","lat":50.991604,"lon":10.47973},{"iata":"SGE","icao":"EDGS","name":"Siegerland Airport","city":"Siegerland","country":"Germany","lat":50.707698822021484,"lon":8.082969665527344},{"iata":"XFW","icao":"EDHI","name":"Hamburg-Finkenwerder Airport","city":"Hamburg","country":"Germany","lat":53.5352783203125,"lon":9.835556030273438},{"iata":"KEL","icao":"EDHK","name":"Kiel-Holtenau Airport","city":"Kiel","country":"Germany","lat":54.37944412231445,"lon":10.145277976989746},{"iata":"LBC","icao":"EDHL","name":"Lübeck Blankensee Airport","city":"Luebeck","country":"Germany","lat":53.8054008484,"lon":10.7192001343},{"iata":"ESS","icao":"EDLE","name":"Essen Mulheim Airport","city":"Essen","country":"Germany","lat":51.40230178833008,"lon":6.9373297691345215},{"iata":"BFE","icao":"EDLI","name":"Bielefeld Airport","city":"Bielefeld","country":"Germany","lat":51.964722,"lon":8.544444},{"iata":"MGL","icao":"EDLN","name":"Mönchengladbach Airport","city":"Moenchengladbach","country":"Germany","lat":51.230278,"lon":6.504444},{"iata":"PAD","icao":"EDLP","name":"Paderborn Lippstadt Airport","city":"Paderborn","country":"Germany","lat":51.614101409899995,"lon":8.616319656369999},{"iata":"DTM","icao":"EDLW","name":"Dortmund Airport","city":"Dortmund","country":"Germany","lat":51.51829910279999,"lon":7.61223983765},{"iata":"AGB","icao":"EDMA","name":"Augsburg Airport","city":"Augsburg","country":"Germany","lat":48.425278,"lon":10.931667},{"iata":"OBF","icao":"EDMO","name":"Oberpfaffenhofen Airport","city":"Oberpfaffenhofen","country":"Germany","lat":48.081402,"lon":11.2831},{"iata":"RBM","icao":"EDMS","name":"Straubing Airport","city":"Straubing","country":"Germany","lat":48.90083312988281,"lon":12.516667366027832},{"iata":"FDH","icao":"EDNY","name":"Friedrichshafen Airport","city":"Friedrichshafen","country":"Germany","lat":47.671298980699994,"lon":9.51148986816},{"iata":"SZW","icao":"EDOP","name":"Schwerin Parchim Airport","city":"Parchim","country":"Germany","lat":53.426998,"lon":11.7834},{"iata":"BYU","icao":"EDQD","name":"Bayreuth Airport","city":"Bayreuth","country":"Germany","lat":49.985001,"lon":11.64},{"iata":"URD","icao":"EDQE","name":"Burg Feuerstein Airport","city":"Burg Feuerstein","country":"Germany","lat":49.794166564941,"lon":11.133610725403},{"iata":"HOQ","icao":"EDQM","name":"Hof-Plauen Airport","city":"Hof","country":"Germany","lat":50.288612365722656,"lon":11.856389045715332},{"iata":"ZQW","icao":"EDRZ","name":"Zweibrücken Airport","city":"Zweibruecken","country":"Germany","lat":49.2094,"lon":7.40056},{"iata":"ZQL","icao":"EDTD","name":"Donaueschingen-Villingen Airport","city":"Donaueschingen","country":"Germany","lat":47.97333145139999,"lon":8.52222156525},{"iata":"BWE","icao":"EDVE","name":"Braunschweig-Wolfsburg Airport","city":"Braunschweig","country":"Germany","lat":52.319199,"lon":10.5561},{"iata":"KSF","icao":"EDVK","name":"Kassel-Calden Airport","city":"Kassel","country":"Germany","lat":51.417273,"lon":9.384967},{"iata":"BRV","icao":"EDWB","name":"Bremerhaven Airport","city":"Bremerhaven","country":"Germany","lat":53.506943,"lon":8.572778},{"iata":"EME","icao":"EDWE","name":"Emden Airport","city":"Emden","country":"Germany","lat":53.391109,"lon":7.2275},{"iata":"WVN","icao":"EDWI","name":"Wilhelmshaven-Mariensiel Airport","city":"Wilhelmshaven","country":"Germany","lat":53.502220153808594,"lon":8.05222225189209},{"iata":"BMK","icao":"EDWR","name":"Borkum Airport","city":"Borkum","country":"Germany","lat":53.59639,"lon":6.709167},{"iata":"NRD","icao":"EDWY","name":"Norderney Airport","city":"Norderney","country":"Germany","lat":53.70694351196289,"lon":7.230000019073486},{"iata":"FLF","icao":"EDXF","name":"Flensburg-Schäferhaus Airport","city":"Flensburg","country":"Germany","lat":54.77333450317383,"lon":9.378889083862305},{"iata":"GWT","icao":"EDXW","name":"Westerland Sylt Airport","city":"Westerland","country":"Germany","lat":54.9132003784,"lon":8.34047031403},{"iata":"KDL","icao":"EEKA","name":"Kärdla Airport","city":"Kardla","country":"Estonia","lat":58.99079895019531,"lon":22.830699920654297},{"iata":"URE","icao":"EEKE","name":"Kuressaare Airport","city":"Kuressaare","country":"Estonia","lat":58.22990036010742,"lon":22.50950050354004},{"iata":"EPU","icao":"EEPU","name":"Pärnu Airport","city":"Parnu","country":"Estonia","lat":58.41899871826172,"lon":24.47279930114746},{"iata":"TLL","icao":"EETN","name":"Lennart Meri Tallinn Airport","city":"Tallinn-ulemiste International","country":"Estonia","lat":59.41329956049999,"lon":24.832799911499997},{"iata":"TAY","icao":"EETU","name":"Tartu Airport","city":"Tartu","country":"Estonia","lat":58.3074989319,"lon":26.690399169900004},{"iata":"ENF","icao":"EFET","name":"Enontekio Airport","city":"Enontekio","country":"Finland","lat":68.362602233887,"lon":23.424299240112},{"iata":"KEV","icao":"EFHA","name":"Halli Airport","city":"Halli","country":"Finland","lat":61.856039,"lon":24.786686},{"iata":"HEM","icao":"EFHF","name":"Helsinki Malmi Airport","city":"Helsinki","country":"Finland","lat":60.254600524902344,"lon":25.042800903320312},{"iata":"HEL","icao":"EFHK","name":"Helsinki Vantaa Airport","city":"Helsinki","country":"Finland","lat":60.317199707031,"lon":24.963300704956},{"iata":"HYV","icao":"EFHV","name":"Hyvinkää Airfield","city":"Hyvinkaa","country":"Finland","lat":60.6543998718,"lon":24.8810997009},{"iata":"KTQ","icao":"EFIT","name":"Kitee Airport","city":"Kitee","country":"Finland","lat":62.1661,"lon":30.073601},{"iata":"IVL","icao":"EFIV","name":"Ivalo Airport","city":"Ivalo","country":"Finland","lat":68.607299804688,"lon":27.405300140381},{"iata":"JOE","icao":"EFJO","name":"Joensuu Airport","city":"Joensuu","country":"Finland","lat":62.662899017334,"lon":29.607500076294},{"iata":"JYV","icao":"EFJY","name":"Jyvaskyla Airport","city":"Jyvaskyla","country":"Finland","lat":62.399501800537,"lon":25.678300857544},{"iata":"KAU","icao":"EFKA","name":"Kauhava Airport","city":"Kauhava","country":"Finland","lat":63.127102,"lon":23.051399},{"iata":"KEM","icao":"EFKE","name":"Kemi-Tornio Airport","city":"Kemi","country":"Finland","lat":65.778701782227,"lon":24.582099914551},{"iata":"KAJ","icao":"EFKI","name":"Kajaani Airport","city":"Kajaani","country":"Finland","lat":64.285499572754,"lon":27.692399978638},{"iata":"KHJ","icao":"EFKJ","name":"Kauhajoki Airport","city":"Kauhajoki","country":"Finland","lat":62.4625015259,"lon":22.3931007385},{"iata":"KOK","icao":"EFKK","name":"Kokkola-Pietarsaari Airport","city":"Kruunupyy","country":"Finland","lat":63.721199035645,"lon":23.143100738525},{"iata":"KAO","icao":"EFKS","name":"Kuusamo Airport","city":"Kuusamo","country":"Finland","lat":65.987602233887,"lon":29.239400863647},{"iata":"KTT","icao":"EFKT","name":"Kittilä Airport","city":"Kittila","country":"Finland","lat":67.700996398926,"lon":24.846799850464},{"iata":"KUO","icao":"EFKU","name":"Kuopio Airport","city":"Kuopio","country":"Finland","lat":63.007099151611,"lon":27.797800064087},{"iata":"QLF","icao":"EFLA","name":"Lahti Vesivehmaa Airport","city":"Vesivehmaa","country":"Finland","lat":61.144199,"lon":25.693501},{"iata":"LPP","icao":"EFLP","name":"Lappeenranta Airport","city":"Lappeenranta","country":"Finland","lat":61.044601,"lon":28.144743},{"iata":"MHQ","icao":"EFMA","name":"Mariehamn Airport","city":"Mariehamn","country":"Finland","lat":60.122200012207,"lon":19.898199081421},{"iata":"MIK","icao":"EFMI","name":"Mikkeli Airport","city":"Mikkeli","country":"Finland","lat":61.6866,"lon":27.201799},{"iata":"OUL","icao":"EFOU","name":"Oulu Airport","city":"Oulu","country":"Finland","lat":64.930099487305,"lon":25.354600906372},{"iata":"POR","icao":"EFPO","name":"Pori Airport","city":"Pori","country":"Finland","lat":61.461700439453,"lon":21.799999237061},{"iata":"RVN","icao":"EFRO","name":"Rovaniemi Airport","city":"Rovaniemi","country":"Finland","lat":66.564796447754,"lon":25.830400466919},{"iata":"SVL","icao":"EFSA","name":"Savonlinna Airport","city":"Savonlinna","country":"Finland","lat":61.943099975586,"lon":28.945100784302},{"iata":"SOT","icao":"EFSO","name":"Sodankyla Airport","city":"Sodankyla","country":"Finland","lat":67.3949966431,"lon":26.6191005707},{"iata":"TMP","icao":"EFTP","name":"Tampere-Pirkkala Airport","city":"Tampere","country":"Finland","lat":61.414100646973,"lon":23.604400634766},{"iata":"TKU","icao":"EFTU","name":"Turku Airport","city":"Turku","country":"Finland","lat":60.514099121094,"lon":22.262800216675},{"iata":"UTI","icao":"EFUT","name":"Utti Air Base","city":"Utti","country":"Finland","lat":60.89640045166,"lon":26.938400268555},{"iata":"VAA","icao":"EFVA","name":"Vaasa Airport","city":"Vaasa","country":"Finland","lat":63.050701141357,"lon":21.762199401855},{"iata":"VRK","icao":"EFVR","name":"Varkaus Airport","city":"Varkaus","country":"Finland","lat":62.171100616455,"lon":27.868600845337},{"iata":"YLI","icao":"EFYL","name":"Ylivieska Airfield","city":"Ylivieska-raudaskyla","country":"Finland","lat":64.0547222,"lon":24.7252778},{"iata":"BFS","icao":"EGAA","name":"Belfast International Airport","city":"Belfast","country":"United Kingdom","lat":54.6575012207,"lon":-6.2158298492399995},{"iata":"ENK","icao":"EGAB","name":"St Angelo Airport","city":"Enniskillen","country":"United Kingdom","lat":54.39889907836914,"lon":-7.651669979095459},{"iata":"BHD","icao":"EGAC","name":"George Best Belfast City Airport","city":"Belfast","country":"United Kingdom","lat":54.618099212646484,"lon":-5.872499942779541},{"iata":"LDY","icao":"EGAE","name":"City of Derry Airport","city":"Londonderry","country":"United Kingdom","lat":55.04280090332031,"lon":-7.161109924316406},{"iata":"BHX","icao":"EGBB","name":"Birmingham International Airport","city":"Birmingham","country":"United Kingdom","lat":52.453899383499994,"lon":-1.74802994728},{"iata":"CVT","icao":"EGBE","name":"Coventry Airport","city":"Coventry","country":"United Kingdom","lat":52.3697013855,"lon":-1.4797199964499999},{"iata":"GLO","icao":"EGBJ","name":"Gloucestershire Airport","city":"Golouchestershire","country":"United Kingdom","lat":51.89419937133789,"lon":-2.167220115661621},{"iata":"GBA","icao":"EGBP","name":"Cotswold Airport","city":"Pailton","country":"United Kingdom","lat":51.668095,"lon":-2.05694},{"iata":"MAN","icao":"EGCC","name":"Manchester Airport","city":"Manchester","country":"United Kingdom","lat":53.35369873046875,"lon":-2.2749500274658203},{"iata":"NQY","icao":"EGHQ","name":"Newquay Cornwall Airport","city":"Newquai","country":"United Kingdom","lat":50.44060134887695,"lon":-4.995409965515137},{"iata":"LYE","icao":"EGDL","name":"RAF Lyneham","city":"Lyneham","country":"United Kingdom","lat":51.5051,"lon":-1.99343},{"iata":"YEO","icao":"EGDY","name":"RNAS Yeovilton","city":"Yeovilton","country":"United Kingdom","lat":51.0093994140625,"lon":-2.638819932937622},{"iata":"HAW","icao":"EGFE","name":"Haverfordwest Airport","city":"Haverfordwest","country":"United Kingdom","lat":51.833099365234375,"lon":-4.9611101150512695},{"iata":"CWL","icao":"EGFF","name":"Cardiff International Airport","city":"Cardiff","country":"United Kingdom","lat":51.39670181274414,"lon":-3.343329906463623},{"iata":"SWS","icao":"EGFH","name":"Swansea Airport","city":"Swansea","country":"United Kingdom","lat":51.60530090332031,"lon":-4.0678300857543945},{"iata":"BRS","icao":"EGGD","name":"Bristol Airport","city":"Bristol","country":"United Kingdom","lat":51.382702,"lon":-2.71909},{"iata":"LPL","icao":"EGGP","name":"Liverpool John Lennon Airport","city":"Liverpool","country":"United Kingdom","lat":53.33359909057617,"lon":-2.849720001220703},{"iata":"LTN","icao":"EGGW","name":"London Luton Airport","city":"London","country":"United Kingdom","lat":51.874698638916016,"lon":-0.36833301186561584},{"iata":"PLH","icao":"EGHD","name":"Plymouth City Airport","city":"Plymouth","country":"United Kingdom","lat":50.422798,"lon":-4.10583},{"iata":"BOH","icao":"EGHH","name":"Bournemouth Airport","city":"Bournemouth","country":"United Kingdom","lat":50.779998779296875,"lon":-1.8424999713897705},{"iata":"SOU","icao":"EGHI","name":"Southampton Airport","city":"Southampton","country":"United Kingdom","lat":50.95029830932617,"lon":-1.3567999601364136},{"iata":"QLA","icao":"EGHL","name":"Lasham Airport","city":"Lasham","country":"United Kingdom","lat":51.187198638916016,"lon":-1.0334999561309814},{"iata":"ACI","icao":"EGJA","name":"Alderney Airport","city":"Alderney","country":"Guernsey","lat":49.706104,"lon":-2.21472},{"iata":"GCI","icao":"EGJB","name":"Guernsey Airport","city":"Guernsey","country":"Guernsey","lat":49.435001373291016,"lon":-2.6019699573516846},{"iata":"JER","icao":"EGJJ","name":"Jersey Airport","city":"Jersey","country":"Jersey","lat":49.20790100097656,"lon":-2.195509910583496},{"iata":"ESH","icao":"EGKA","name":"Shoreham Airport","city":"Shoreham By Sea","country":"United Kingdom","lat":50.835602,"lon":-0.297222},{"iata":"BQH","icao":"EGKB","name":"London Biggin Hill Airport","city":"Biggin Hill","country":"United Kingdom","lat":51.33079910279999,"lon":0.0324999988079},{"iata":"LGW","icao":"EGKK","name":"London Gatwick Airport","city":"London","country":"United Kingdom","lat":51.148102,"lon":-0.190278},{"iata":"LCY","icao":"EGLC","name":"London City Airport","city":"London","country":"United Kingdom","lat":51.505299,"lon":0.055278},{"iata":"FAB","icao":"EGLF","name":"Farnborough Airport","city":"Farnborough","country":"United Kingdom","lat":51.2757987976,"lon":-0.776332974434},{"iata":"BBS","icao":"EGLK","name":"Blackbushe Airport","city":"Blackbushe","country":"United Kingdom","lat":51.32389831542969,"lon":-0.8475000262260437},{"iata":"LHR","icao":"EGLL","name":"London Heathrow Airport","city":"London","country":"United Kingdom","lat":51.4706,"lon":-0.461941},{"iata":"SEN","icao":"EGMC","name":"Southend Airport","city":"Southend","country":"United Kingdom","lat":51.5713996887207,"lon":0.6955559849739075},{"iata":"LYX","icao":"EGMD","name":"Lydd Airport","city":"Lydd","country":"United Kingdom","lat":50.95610046386719,"lon":0.9391670227050781},{"iata":"MSE","icao":"EGMH","name":"Kent International Airport","city":"Manston","country":"United Kingdom","lat":51.342201,"lon":1.34611},{"iata":"CAX","icao":"EGNC","name":"Carlisle Airport","city":"Carlisle","country":"United Kingdom","lat":54.9375,"lon":-2.8091700077056885},{"iata":"BLK","icao":"EGNH","name":"Blackpool International Airport","city":"Blackpool","country":"United Kingdom","lat":53.77170181274414,"lon":-3.0286099910736084},{"iata":"HUY","icao":"EGNJ","name":"Humberside Airport","city":"Humberside","country":"United Kingdom","lat":53.57440185546875,"lon":-0.350832998752594},{"iata":"BWF","icao":"EGNL","name":"Barrow Walney Island Airport","city":"Barrow Island","country":"United Kingdom","lat":54.1286111,"lon":-3.2675},{"iata":"LBA","icao":"EGNM","name":"Leeds Bradford Airport","city":"Leeds","country":"United Kingdom","lat":53.86589813232422,"lon":-1.6605700254440308},{"iata":"WRT","icao":"EGNO","name":"Warton Airport","city":"Warton","country":"United Kingdom","lat":53.745098,"lon":-2.88306},{"iata":"CEG","icao":"EGNR","name":"Hawarden Airport","city":"Hawarden","country":"United Kingdom","lat":53.1781005859375,"lon":-2.9777801036834717},{"iata":"NCL","icao":"EGNT","name":"Newcastle Airport","city":"Newcastle","country":"United Kingdom","lat":55.037498474121094,"lon":-1.6916699409484863},{"iata":"MME","icao":"EGNV","name":"Durham Tees Valley Airport","city":"Teesside","country":"United Kingdom","lat":54.50920104980469,"lon":-1.4294099807739258},{"iata":"EMA","icao":"EGNX","name":"East Midlands Airport","city":"East Midlands","country":"United Kingdom","lat":52.8311004639,"lon":-1.32806003094},{"iata":"KOI","icao":"EGPA","name":"Kirkwall Airport","city":"Kirkwall","country":"United Kingdom","lat":58.957801818847656,"lon":-2.9049999713897705},{"iata":"LSI","icao":"EGPB","name":"Sumburgh Airport","city":"Sumburgh","country":"United Kingdom","lat":59.87889862060547,"lon":-1.2955600023269653},{"iata":"WIC","icao":"EGPC","name":"Wick Airport","city":"Wick","country":"United Kingdom","lat":58.458900451660156,"lon":-3.09306001663208},{"iata":"ABZ","icao":"EGPD","name":"Aberdeen Dyce Airport","city":"Aberdeen","country":"United Kingdom","lat":57.201900482177734,"lon":-2.197779893875122},{"iata":"INV","icao":"EGPE","name":"Inverness Airport","city":"Inverness","country":"United Kingdom","lat":57.54249954223633,"lon":-4.047500133514404},{"iata":"GLA","icao":"EGPF","name":"Glasgow International Airport","city":"Glasgow","country":"United Kingdom","lat":55.8718986511,"lon":-4.43306016922},{"iata":"EDI","icao":"EGPH","name":"Edinburgh Airport","city":"Edinburgh","country":"United Kingdom","lat":55.95000076293945,"lon":-3.372499942779541},{"iata":"ILY","icao":"EGPI","name":"Islay Airport","city":"Islay","country":"United Kingdom","lat":55.68190002441406,"lon":-6.256669998168945},{"iata":"PIK","icao":"EGPK","name":"Glasgow Prestwick Airport","city":"Prestwick","country":"United Kingdom","lat":55.5093994140625,"lon":-4.586669921875},{"iata":"BEB","icao":"EGPL","name":"Benbecula Airport","city":"Benbecula","country":"United Kingdom","lat":57.48109817504883,"lon":-7.3627800941467285},{"iata":"SCS","icao":"EGPM","name":"Scatsta Airport","city":"Scatsta","country":"United Kingdom","lat":60.43280029296875,"lon":-1.2961100339889526},{"iata":"DND","icao":"EGPN","name":"Dundee Airport","city":"Dundee","country":"United Kingdom","lat":56.45249938964844,"lon":-3.025830030441284},{"iata":"SYY","icao":"EGPO","name":"Stornoway Airport","city":"Stornoway","country":"United Kingdom","lat":58.215599060058594,"lon":-6.331110000610352},{"iata":"TRE","icao":"EGPU","name":"Tiree Airport","city":"Tiree","country":"United Kingdom","lat":56.49919891357422,"lon":-6.869170188903809},{"iata":"ADX","icao":"EGQL","name":"RAF Leuchars","city":"Leuchars","country":"United Kingdom","lat":56.37289810180664,"lon":-2.8684399127960205},{"iata":"LMO","icao":"EGQS","name":"RAF Lossiemouth","city":"Lossiemouth","country":"United Kingdom","lat":57.7052001953125,"lon":-3.339169979095459},{"iata":"CBG","icao":"EGSC","name":"Cambridge Airport","city":"Cambridge","country":"United Kingdom","lat":52.205002,"lon":0.175},{"iata":"NWI","icao":"EGSH","name":"Norwich International Airport","city":"Norwich","country":"United Kingdom","lat":52.6758003235,"lon":1.28278005123},{"iata":"STN","icao":"EGSS","name":"London Stansted Airport","city":"London","country":"United Kingdom","lat":51.8849983215,"lon":0.234999999404},{"iata":"EXT","icao":"EGTE","name":"Exeter International Airport","city":"Exeter","country":"United Kingdom","lat":50.73440170288086,"lon":-3.4138898849487305},{"iata":"FZO","icao":"EGTG","name":"Bristol Filton Airport","city":"Bristol","country":"United Kingdom","lat":51.5194015503,"lon":-2.59083008766},{"iata":"OXF","icao":"EGTK","name":"Oxford (Kidlington) Airport","city":"Oxford","country":"United Kingdom","lat":51.8368988037,"lon":-1.32000005245},{"iata":"BEX","icao":"EGUB","name":"RAF Benson","city":"Benson","country":"United Kingdom","lat":51.616401672399995,"lon":-1.09582996368},{"iata":"LKZ","icao":"EGUL","name":"RAF Lakenheath","city":"Lakenheath","country":"United Kingdom","lat":52.409301757799994,"lon":0.56099998951},{"iata":"MHZ","icao":"EGUN","name":"RAF Mildenhall","city":"Mildenhall","country":"United Kingdom","lat":52.361900329589844,"lon":0.48640599846839905},{"iata":"QUY","icao":"EGUY","name":"RAF Wyton","city":"Wyton","country":"United Kingdom","lat":52.3572006226,"lon":-0.107832998037},{"iata":"FFD","icao":"EGVA","name":"RAF Fairford","city":"Fairford","country":"United Kingdom","lat":51.6822013855,"lon":-1.7900300025900002},{"iata":"BZZ","icao":"EGVN","name":"RAF Brize Norton","city":"Brize Norton","country":"United Kingdom","lat":51.75,"lon":-1.58362},{"iata":"ODH","icao":"EGVO","name":"RAF Odiham","city":"Odiham","country":"United Kingdom","lat":51.2341003418,"lon":-0.94282501936},{"iata":"NHT","icao":"EGWU","name":"RAF Northolt","city":"Northolt","country":"United Kingdom","lat":51.553001403799996,"lon":-0.418166995049},{"iata":"QCY","icao":"EGXC","name":"RAF Coningsby","city":"Coningsby","country":"United Kingdom","lat":53.0929985046,"lon":-0.166014000773},{"iata":"BEQ","icao":"EGXH","name":"RAF Honington","city":"Honington","country":"United Kingdom","lat":52.34260177612305,"lon":0.7729390263557434},{"iata":"SQZ","icao":"EGXP","name":"RAF Scampton","city":"Scampton","country":"United Kingdom","lat":53.307800293,"lon":-0.550832986832},{"iata":"HRT","icao":"EGXU","name":"RAF Linton-On-Ouse","city":"Linton-on-ouse","country":"United Kingdom","lat":54.0489006042,"lon":-1.2527500391},{"iata":"WTN","icao":"EGXW","name":"RAF Waddington","city":"Waddington","country":"United Kingdom","lat":53.1661987305,"lon":-0.523810982704},{"iata":"KNF","icao":"EGYM","name":"RAF Marham","city":"Marham","country":"United Kingdom","lat":52.648395,"lon":0.550692},{"iata":"AMS","icao":"EHAM","name":"Amsterdam Airport Schiphol","city":"Amsterdam","country":"Netherlands","lat":52.308601,"lon":4.76389},{"iata":"MST","icao":"EHBK","name":"Maastricht Aachen Airport","city":"Maastricht","country":"Netherlands","lat":50.911701,"lon":5.77014},{"iata":"EIN","icao":"EHEH","name":"Eindhoven Airport","city":"Eindhoven","country":"Netherlands","lat":51.4500999451,"lon":5.37452983856},{"iata":"GRQ","icao":"EHGG","name":"Eelde Airport","city":"Groningen","country":"Netherlands","lat":53.1197013855,"lon":6.57944011688},{"iata":"GLZ","icao":"EHGR","name":"Gilze Rijen Air Base","city":"Gilze-rijen","country":"Netherlands","lat":51.56740188598633,"lon":4.931829929351807},{"iata":"DHR","icao":"EHKD","name":"De Kooy Airport","city":"De Kooy","country":"Netherlands","lat":52.92340087890625,"lon":4.780620098114014},{"iata":"LEY","icao":"EHLE","name":"Lelystad Airport","city":"Lelystad","country":"Netherlands","lat":52.4603,"lon":5.52722},{"iata":"LWR","icao":"EHLW","name":"Leeuwarden Air Base","city":"Leeuwarden","country":"Netherlands","lat":53.228599548339844,"lon":5.760560035705566},{"iata":"RTM","icao":"EHRD","name":"Rotterdam The Hague Airport","city":"Rotterdam","country":"Netherlands","lat":51.956902,"lon":4.43722},{"iata":"UTC","icao":"EHSB","name":"Soesterberg Air Base","city":"Soesterberg","country":"Netherlands","lat":52.1273002625,"lon":5.27618980408},{"iata":"ENS","icao":"EHTW","name":"Twente Airport","city":"Enschede","country":"Netherlands","lat":52.275833,"lon":6.889167},{"iata":"LID","icao":"EHVB","name":"Valkenburg Naval Air Base","city":"Valkenburg","country":"Netherlands","lat":52.166099548300004,"lon":4.41794013977},{"iata":"WOE","icao":"EHWO","name":"Woensdrecht Air Base","city":"Woensdrecht","country":"Netherlands","lat":51.4491,"lon":4.34203},{"iata":"ORK","icao":"EICK","name":"Cork Airport","city":"Cork","country":"Ireland","lat":51.84130096435547,"lon":-8.491109848022461},{"iata":"GWY","icao":"EICM","name":"Galway Airport","city":"Galway","country":"Ireland","lat":53.300201416015625,"lon":-8.941590309143066},{"iata":"DUB","icao":"EIDW","name":"Dublin Airport","city":"Dublin","country":"Ireland","lat":53.421299,"lon":-6.27007},{"iata":"NOC","icao":"EIKN","name":"Ireland West Knock Airport","city":"Connaught","country":"Ireland","lat":53.910301208496094,"lon":-8.818490028381348},{"iata":"KIR","icao":"EIKY","name":"Kerry Airport","city":"Kerry","country":"Ireland","lat":52.18090057373047,"lon":-9.52377986907959},{"iata":"SNN","icao":"EINN","name":"Shannon Airport","city":"Shannon","country":"Ireland","lat":52.702,"lon":-8.92482},{"iata":"SXL","icao":"EISG","name":"Sligo Airport","city":"Sligo","country":"Ireland","lat":54.280200958252,"lon":-8.5992097854614},{"iata":"WAT","icao":"EIWF","name":"Waterford Airport","city":"Waterford","country":"Ireland","lat":52.187198638916016,"lon":-7.0869598388671875},{"iata":"AAR","icao":"EKAH","name":"Aarhus Airport","city":"Aarhus","country":"Denmark","lat":56.2999992371,"lon":10.619000434899998},{"iata":"BLL","icao":"EKBI","name":"Billund Airport","city":"Billund","country":"Denmark","lat":55.7402992249,"lon":9.15178012848},{"iata":"CPH","icao":"EKCH","name":"Copenhagen Kastrup Airport","city":"Copenhagen","country":"Denmark","lat":55.617900848389,"lon":12.656000137329},{"iata":"EBJ","icao":"EKEB","name":"Esbjerg Airport","city":"Esbjerg","country":"Denmark","lat":55.525902,"lon":8.5534},{"iata":"KRP","icao":"EKKA","name":"Karup Airport","city":"Karup","country":"Denmark","lat":56.29750061035156,"lon":9.124629974365234},{"iata":"BYR","icao":"EKLS","name":"Læsø Airport","city":"Laeso","country":"Denmark","lat":57.277198791503906,"lon":11.000100135803223},{"iata":"MRW","icao":"EKMB","name":"Lolland Falster Maribo Airport","city":"Maribo","country":"Denmark","lat":54.699299,"lon":11.4401},{"iata":"ODE","icao":"EKOD","name":"Odense Airport","city":"Odense","country":"Denmark","lat":55.47669982910156,"lon":10.330900192260742},{"iata":"RKE","icao":"EKRK","name":"Copenhagen Roskilde Airport","city":"Copenhagen","country":"Denmark","lat":55.585601806640625,"lon":12.131400108337402},{"iata":"RNN","icao":"EKRN","name":"Bornholm Airport","city":"Ronne","country":"Denmark","lat":55.06330108642578,"lon":14.759599685668945},{"iata":"SGD","icao":"EKSB","name":"Sønderborg Airport","city":"Soenderborg","country":"Denmark","lat":54.96440124511719,"lon":9.791729927062988},{"iata":"SKS","icao":"EKSP","name":"Skrydstrup Air Base","city":"Skrydstrup","country":"Denmark","lat":55.221048,"lon":9.26702},{"iata":"SQW","icao":"EKSV","name":"Skive Airport","city":"Skive","country":"Denmark","lat":56.550201416015625,"lon":9.172980308532715},{"iata":"TED","icao":"EKTS","name":"Thisted Airport","city":"Thisted","country":"Denmark","lat":57.06880187988281,"lon":8.705220222473145},{"iata":"STA","icao":"EKVJ","name":"Stauning Airport","city":"Stauning","country":"Denmark","lat":55.9901008605957,"lon":8.353910446166992},{"iata":"AAL","icao":"EKYT","name":"Aalborg Airport","city":"Aalborg","country":"Denmark","lat":57.0927589138,"lon":9.84924316406},{"iata":"AES","icao":"ENAL","name":"Ålesund Airport","city":"Alesund","country":"Norway","lat":62.5625,"lon":6.119699954986572},{"iata":"ANX","icao":"ENAN","name":"Andøya Airport","city":"Andoya","country":"Norway","lat":69.292503356934,"lon":16.144199371338},{"iata":"ALF","icao":"ENAT","name":"Alta Airport","city":"Alta","country":"Norway","lat":69.976097106934,"lon":23.371700286865},{"iata":"BNN","icao":"ENBN","name":"Brønnøysund Airport","city":"Bronnoysund","country":"Norway","lat":65.461097717285,"lon":12.217499732971},{"iata":"BOO","icao":"ENBO","name":"Bodø Airport","city":"Bodo","country":"Norway","lat":67.26920318603516,"lon":14.365300178527832},{"iata":"BGO","icao":"ENBR","name":"Bergen Airport Flesland","city":"Bergen","country":"Norway","lat":60.29339981,"lon":5.218140125},{"iata":"BJF","icao":"ENBS","name":"Båtsfjord Airport","city":"Batsfjord","country":"Norway","lat":70.60050201416,"lon":29.691400527954},{"iata":"KRS","icao":"ENCN","name":"Kristiansand Airport","city":"Kristiansand","country":"Norway","lat":58.204201,"lon":8.08537},{"iata":"DLD","icao":"ENDI","name":"Geilo Airport Dagali","city":"Geilo","country":"Norway","lat":60.417301177978516,"lon":8.518349647521973},{"iata":"BDU","icao":"ENDU","name":"Bardufoss Airport","city":"Bardufoss","country":"Norway","lat":69.055801391602,"lon":18.540399551392},{"iata":"VDB","icao":"ENFG","name":"Leirin Airport","city":"Fagernes","country":"Norway","lat":61.015598297119,"lon":9.2880601882935},{"iata":"FRO","icao":"ENFL","name":"Florø Airport","city":"Floro","country":"Norway","lat":61.583599090576,"lon":5.0247201919556},{"iata":"OSL","icao":"ENGM","name":"Oslo Lufthavn","city":"Oslo","country":"Norway","lat":60.121,"lon":11.0502},{"iata":"HAU","icao":"ENHD","name":"Haugesund Airport","city":"Haugesund","country":"Norway","lat":59.34529876709,"lon":5.2083601951599},{"iata":"HAA","icao":"ENHK","name":"Hasvik Airport","city":"Hasvik","country":"Norway","lat":70.486701965332,"lon":22.139699935913},{"iata":"KSU","icao":"ENKB","name":"Kristiansund Airport (Kvernberget)","city":"Kristiansund","country":"Norway","lat":63.111801147461,"lon":7.824520111084},{"iata":"KKN","icao":"ENKR","name":"Kirkenes Airport (Høybuktmoen)","city":"Kirkenes","country":"Norway","lat":69.725799560547,"lon":29.891300201416},{"iata":"FAN","icao":"ENLI","name":"Lista Airport","city":"Farsund","country":"Norway","lat":58.0994987487793,"lon":6.626049995422363},{"iata":"MOL","icao":"ENML","name":"Molde Airport","city":"Molde","country":"Norway","lat":62.744701385498,"lon":7.2624998092651},{"iata":"MJF","icao":"ENMS","name":"Mosjøen Airport (Kjærstad)","city":"Mosjoen","country":"Norway","lat":65.783996582031,"lon":13.214900016785},{"iata":"LKL","icao":"ENNA","name":"Banak Airport","city":"Lakselv","country":"Norway","lat":70.068801879883,"lon":24.973499298096},{"iata":"NTB","icao":"ENNO","name":"Notodden Airport","city":"Notodden","country":"Norway","lat":59.565701,"lon":9.21222},{"iata":"OLA","icao":"ENOL","name":"Ørland Airport","city":"Orland","country":"Norway","lat":63.69889831542969,"lon":9.604000091552734},{"iata":"RRS","icao":"ENRO","name":"Røros Airport","city":"Roros","country":"Norway","lat":62.578399658203,"lon":11.342300415039},{"iata":"SKE","icao":"ENSN","name":"Skien Airport","city":"Skien","country":"Norway","lat":59.185001373291016,"lon":9.566940307617188},{"iata":"SRP","icao":"ENSO","name":"Stord Airport","city":"Stord","country":"Norway","lat":59.791900634765625,"lon":5.340849876403809},{"iata":"SSJ","icao":"ENST","name":"Sandnessjøen Airport (Stokka)","city":"Sandnessjoen","country":"Norway","lat":65.956802368164,"lon":12.468899726868},{"iata":"TRD","icao":"ENVA","name":"Trondheim Airport Værnes","city":"Trondheim","country":"Norway","lat":63.4578018,"lon":10.9239998},{"iata":"SVG","icao":"ENZV","name":"Stavanger Airport Sola","city":"Stavanger","country":"Norway","lat":58.876701354,"lon":5.6377801895},{"iata":"GDN","icao":"EPGD","name":"Gdańsk Lech Wałęsa Airport","city":"Gdansk","country":"Poland","lat":54.377601623535156,"lon":18.46619987487793},{"iata":"KRK","icao":"EPKK","name":"Kraków John Paul II International Airport","city":"Krakow","country":"Poland","lat":50.077702,"lon":19.7848},{"iata":"KTW","icao":"EPKT","name":"Katowice International Airport","city":"Katowice","country":"Poland","lat":50.4743,"lon":19.08},{"iata":"POZ","icao":"EPPO","name":"Poznań-Ławica Airport","city":"Poznan","country":"Poland","lat":52.421001434299995,"lon":16.8262996674},{"iata":"RZE","icao":"EPRZ","name":"Rzeszów-Jasionka Airport","city":"Rzeszow","country":"Poland","lat":50.1100006104,"lon":22.0189990997},{"iata":"SZZ","icao":"EPSC","name":"Szczecin-Goleniów \"\"Solidarność\"\" Airport","city":"Szczecin","country":"Poland","lat":53.584701538100006,"lon":14.902199745199999},{"iata":"OSP","icao":"EPSK","name":"Redzikowo Air Base","city":"Slupsk","country":"Poland","lat":54.47890090942383,"lon":17.107500076293945},{"iata":"WAW","icao":"EPWA","name":"Warsaw Chopin Airport","city":"Warsaw","country":"Poland","lat":52.1656990051,"lon":20.967100143399996},{"iata":"WRO","icao":"EPWR","name":"Copernicus Wrocław Airport","city":"Wroclaw","country":"Poland","lat":51.1026992798,"lon":16.885799408},{"iata":"IEG","icao":"EPZG","name":"Zielona Góra-Babimost Airport","city":"Zielona Gora","country":"Poland","lat":52.138500213600004,"lon":15.7986001968},{"iata":"RNB","icao":"ESDF","name":"Ronneby Airport","city":"Ronneby","country":"Sweden","lat":56.266700744629,"lon":15.265000343323},{"iata":"GOT","icao":"ESGG","name":"Gothenburg-Landvetter Airport","city":"Gothenborg","country":"Sweden","lat":57.662799835205,"lon":12.279800415039},{"iata":"JKG","icao":"ESGJ","name":"Jönköping Airport","city":"Joenkoeping","country":"Sweden","lat":57.757598876953125,"lon":14.068699836730957},{"iata":"LDK","icao":"ESGL","name":"Lidköping-Hovby Airport","city":"Lidkoping","country":"Sweden","lat":58.4655,"lon":13.1744},{"iata":"GSE","icao":"ESGP","name":"Gothenburg City Airport","city":"Gothenborg","country":"Sweden","lat":57.7747,"lon":11.8704},{"iata":"KVB","icao":"ESGR","name":"Skövde Airport","city":"Skovde","country":"Sweden","lat":58.45640182495117,"lon":13.972700119018555},{"iata":"THN","icao":"ESGT","name":"Trollhättan-Vänersborg Airport","city":"Trollhattan","country":"Sweden","lat":58.31809997558594,"lon":12.345000267028809},{"iata":"KSK","icao":"ESKK","name":"Karlskoga Airport","city":"Karlskoga","country":"Sweden","lat":59.34590148925781,"lon":14.49590015411377},{"iata":"MXX","icao":"ESKM","name":"Mora Airport","city":"Mora","country":"Sweden","lat":60.957901,"lon":14.5114},{"iata":"NYO","icao":"ESKN","name":"Stockholm Skavsta Airport","city":"Stockholm","country":"Sweden","lat":58.78860092163086,"lon":16.912200927734375},{"iata":"KID","icao":"ESMK","name":"Kristianstad Airport","city":"Kristianstad","country":"Sweden","lat":55.92169952392578,"lon":14.08549976348877},{"iata":"OSK","icao":"ESMO","name":"Oskarshamn Airport","city":"Oskarshamn","country":"Sweden","lat":57.350498,"lon":16.497999},{"iata":"KLR","icao":"ESMQ","name":"Kalmar Airport","city":"Kalkmar","country":"Sweden","lat":56.68550109863281,"lon":16.287599563598633},{"iata":"MMX","icao":"ESMS","name":"Malmö Sturup Airport","city":"Malmoe","country":"Sweden","lat":55.536305364,"lon":13.376197814900001},{"iata":"HAD","icao":"ESMT","name":"Halmstad Airport","city":"Halmstad","country":"Sweden","lat":56.69110107421875,"lon":12.820199966430664},{"iata":"VXO","icao":"ESMX","name":"Växjö Kronoberg Airport","city":"Vaxjo","country":"Sweden","lat":56.929100036621094,"lon":14.727999687194824},{"iata":"EVG","icao":"ESND","name":"Sveg Airport","city":"Sveg","country":"Sweden","lat":62.04779815673828,"lon":14.422900199890137},{"iata":"GEV","icao":"ESNG","name":"Gällivare Airport","city":"Gallivare","country":"Sweden","lat":67.13240051269531,"lon":20.814599990844727},{"iata":"HUV","icao":"ESNH","name":"Hudiksvall Airport","city":"Hudiksvall","country":"Sweden","lat":61.7681007385,"lon":17.0806999207},{"iata":"KRF","icao":"ESNK","name":"Kramfors Sollefteå Airport","city":"Kramfors","country":"Sweden","lat":63.04859924316406,"lon":17.76889991760254},{"iata":"LYC","icao":"ESNL","name":"Lycksele Airport","city":"Lycksele","country":"Sweden","lat":64.54830169677734,"lon":18.71619987487793},{"iata":"SDL","icao":"ESNN","name":"Sundsvall-Härnösand Airport","city":"Sundsvall","country":"Sweden","lat":62.528099060058594,"lon":17.443899154663086},{"iata":"OER","icao":"ESNO","name":"Örnsköldsvik Airport","city":"Ornskoldsvik","country":"Sweden","lat":63.40829849243164,"lon":18.989999771118164},{"iata":"KRN","icao":"ESNQ","name":"Kiruna Airport","city":"Kiruna","country":"Sweden","lat":67.821998596191,"lon":20.336799621582},{"iata":"SFT","icao":"ESNS","name":"Skellefteå Airport","city":"Skelleftea","country":"Sweden","lat":64.62480163574219,"lon":21.076900482177734},{"iata":"UME","icao":"ESNU","name":"Umeå Airport","city":"Umea","country":"Sweden","lat":63.791801452637,"lon":20.282800674438},{"iata":"VHM","icao":"ESNV","name":"Vilhelmina Airport","city":"Vilhelmina","country":"Sweden","lat":64.5791015625,"lon":16.833599090576172},{"iata":"AJR","icao":"ESNX","name":"Arvidsjaur Airport","city":"Arvidsjaur","country":"Sweden","lat":65.59030151367188,"lon":19.28190040588379},{"iata":"ORB","icao":"ESOE","name":"Örebro Airport","city":"Orebro","country":"Sweden","lat":59.22370147705078,"lon":15.038000106811523},{"iata":"VST","icao":"ESOW","name":"Stockholm Västerås Airport","city":"Vasteras","country":"Sweden","lat":59.58940124511719,"lon":16.63360023498535},{"iata":"LLA","icao":"ESPA","name":"Luleå Airport","city":"Lulea","country":"Sweden","lat":65.543800354004,"lon":22.121999740601},{"iata":"ARN","icao":"ESSA","name":"Stockholm-Arlanda Airport","city":"Stockholm","country":"Sweden","lat":59.651901245117,"lon":17.918600082397},{"iata":"BMA","icao":"ESSB","name":"Stockholm-Bromma Airport","city":"Stockholm","country":"Sweden","lat":59.354400634765625,"lon":17.941699981689453},{"iata":"BLE","icao":"ESSD","name":"Borlange Airport","city":"Borlange","country":"Sweden","lat":60.422000885009766,"lon":15.515199661254883},{"iata":"HLF","icao":"ESSF","name":"Hultsfred Airport","city":"Hultsfred","country":"Sweden","lat":57.525799,"lon":15.8233},{"iata":"GVX","icao":"ESSK","name":"Gävle Sandviken Airport","city":"Gavle","country":"Sweden","lat":60.593299865722656,"lon":16.951400756835938},{"iata":"LPI","icao":"ESSL","name":"Linköping City Airport","city":"Linkoeping","country":"Sweden","lat":58.4062004089,"lon":15.680500030500001},{"iata":"NRK","icao":"ESSP","name":"Norrköping Airport","city":"Norrkoeping","country":"Sweden","lat":58.586299896240234,"lon":16.250600814819336},{"iata":"EKT","icao":"ESSU","name":"Eskilstuna Airport","city":"Eskilstuna","country":"Sweden","lat":59.35110092163086,"lon":16.70840072631836},{"iata":"VBY","icao":"ESSV","name":"Visby Airport","city":"Visby","country":"Sweden","lat":57.662799835205,"lon":18.346200942993},{"iata":"SPM","icao":"ETAD","name":"Spangdahlem Air Base","city":"Spangdahlem","country":"Germany","lat":49.9726982117,"lon":6.69250011444},{"iata":"RMS","icao":"ETAR","name":"Ramstein Air Base","city":"Ramstein","country":"Germany","lat":49.4369010925293,"lon":7.600279808044434},{"iata":"GHF","icao":"ETEU","name":"[Duplicate] Giebelstadt Army Air Field","city":"Giebelstadt","country":"Germany","lat":49.648101806599996,"lon":9.966489791870002},{"iata":"ZCN","icao":"ETHC","name":"Celle Airport","city":"Celle","country":"Germany","lat":52.59120178222656,"lon":10.022100448608398},{"iata":"FRZ","icao":"ETHF","name":"Fritzlar Airport","city":"Fritzlar","country":"Germany","lat":51.1146,"lon":9.286},{"iata":"ZNF","icao":"ETID","name":"Hanau Army Air Field","city":"Hanau","country":"Germany","lat":50.169201,"lon":8.96159},{"iata":"KZG","icao":"ETIN","name":"Flugplatz Kitzingen","city":"Kitzingen","country":"Germany","lat":49.743099,"lon":10.2006},{"iata":"FCN","icao":"ETMN","name":"Nordholz Naval Airbase","city":"Nordholz","country":"Germany","lat":53.7677001953,"lon":8.658499717709999},{"iata":"GKE","icao":"ETNG","name":"Geilenkirchen Air Base","city":"Geilenkirchen","country":"Germany","lat":50.9608,"lon":6.04242},{"iata":"RLG","icao":"ETNL","name":"Rostock-Laage Airport","city":"Laage","country":"Germany","lat":53.9182014465,"lon":12.278300285299999},{"iata":"WBG","icao":"ETNS","name":"Schleswig Air Base","city":"Schleswig","country":"Germany","lat":54.459301,"lon":9.51633},{"iata":"WIE","icao":"ETOU","name":"Wiesbaden Army Airfield","city":"Wiesbaden","country":"Germany","lat":50.049800872802734,"lon":8.325400352478027},{"iata":"FEL","icao":"ETSF","name":"Fürstenfeldbruck Air Base","city":"Fuerstenfeldbruck","country":"Germany","lat":48.205555,"lon":11.266944},{"iata":"IGS","icao":"ETSI","name":"Ingolstadt Manching Airport","city":"Ingolstadt","country":"Germany","lat":48.7156982421875,"lon":11.534000396728516},{"iata":"GUT","icao":"ETUO","name":"Gütersloh Air Base","city":"Guetersloh","country":"Germany","lat":51.922798,"lon":8.30633},{"iata":"FUE","icao":"GCFV","name":"Fuerteventura Airport","city":"Fuerteventura","country":"Spain","lat":28.452699661254883,"lon":-13.863800048828125},{"iata":"VDE","icao":"GCHI","name":"Hierro Airport","city":"Hierro","country":"Spain","lat":27.814800262451172,"lon":-17.887100219726562},{"iata":"SPC","icao":"GCLA","name":"La Palma Airport","city":"Santa Cruz De La Palma","country":"Spain","lat":28.626499,"lon":-17.7556},{"iata":"LPA","icao":"GCLP","name":"Gran Canaria Airport","city":"Gran Canaria","country":"Spain","lat":27.931900024414062,"lon":-15.38659954071045},{"iata":"ACE","icao":"GCRR","name":"Lanzarote Airport","city":"Arrecife","country":"Spain","lat":28.945499,"lon":-13.6052},{"iata":"TFS","icao":"GCTS","name":"Tenerife South Airport","city":"Tenerife","country":"Spain","lat":28.044500351,"lon":-16.5725002289},{"iata":"TFN","icao":"GCXO","name":"Tenerife Norte Airport","city":"Tenerife","country":"Spain","lat":28.4827003479,"lon":-16.3414993286},{"iata":"MLN","icao":"GEML","name":"Melilla Airport","city":"Melilla","country":"Spain","lat":35.279800415,"lon":-2.9562599659},{"iata":"DBV","icao":"LDDU","name":"Dubrovnik Airport","city":"Dubrovnik","country":"Croatia","lat":42.5614013671875,"lon":18.268199920654297},{"iata":"OSI","icao":"LDOS","name":"Osijek Airport","city":"Osijek","country":"Croatia","lat":45.46269989013672,"lon":18.810199737548828},{"iata":"PUY","icao":"LDPL","name":"Pula Airport","city":"Pula","country":"Croatia","lat":44.89350128173828,"lon":13.922200202941895},{"iata":"RJK","icao":"LDRI","name":"Rijeka Airport","city":"Rijeka","country":"Croatia","lat":45.21689987182617,"lon":14.570300102233887},{"iata":"SPU","icao":"LDSP","name":"Split Airport","city":"Split","country":"Croatia","lat":43.53889846801758,"lon":16.29800033569336},{"iata":"ZAG","icao":"LDZA","name":"Zagreb Airport","city":"Zagreb","country":"Croatia","lat":45.7429008484,"lon":16.0687999725},{"iata":"ZAD","icao":"LDZD","name":"Zadar Airport","city":"Zadar","country":"Croatia","lat":44.108299,"lon":15.3467},{"iata":"ABC","icao":"LEAB","name":"Albacete-Los Llanos Airport","city":"Albacete","country":"Spain","lat":38.9485015869,"lon":-1.8635200262099998},{"iata":"ALC","icao":"LEAL","name":"Alicante International Airport","city":"Alicante","country":"Spain","lat":38.28219985961914,"lon":-0.5581560134887695},{"iata":"LEI","icao":"LEAM","name":"Almería International Airport","city":"Almeria","country":"Spain","lat":36.84389877319336,"lon":-2.3701000213623047},{"iata":"OVD","icao":"LEAS","name":"Asturias Airport","city":"Aviles","country":"Spain","lat":43.5635986328125,"lon":-6.0346198081970215},{"iata":"ODB","icao":"LEBA","name":"Córdoba Airport","city":"Cordoba","country":"Spain","lat":37.84199905395508,"lon":-4.848879814147949},{"iata":"BIO","icao":"LEBB","name":"Bilbao Airport","city":"Bilbao","country":"Spain","lat":43.30110168457031,"lon":-2.9106099605560303},{"iata":"BCN","icao":"LEBL","name":"Barcelona International Airport","city":"Barcelona","country":"Spain","lat":41.2971,"lon":2.07846},{"iata":"BJZ","icao":"LEBZ","name":"Badajoz Airport","city":"Badajoz","country":"Spain","lat":38.891300201416016,"lon":-6.8213300704956055},{"iata":"LCG","icao":"LECO","name":"A Coruña Airport","city":"La Coruna","country":"Spain","lat":43.302101,"lon":-8.37726},{"iata":"GRO","icao":"LEGE","name":"Girona Airport","city":"Gerona","country":"Spain","lat":41.901000977,"lon":2.7605500221},{"iata":"GRX","icao":"LEGR","name":"Federico Garcia Lorca Airport","city":"Granada","country":"Spain","lat":37.18870162963867,"lon":-3.777359962463379},{"iata":"IBZ","icao":"LEIB","name":"Ibiza Airport","city":"Ibiza","country":"Spain","lat":38.872898101800004,"lon":1.3731199502899998},{"iata":"XRY","icao":"LEJR","name":"Jerez Airport","city":"Jerez","country":"Spain","lat":36.744598388671875,"lon":-6.060110092163086},{"iata":"MJV","icao":"LELC","name":"San Javier Airport","city":"Murcia","country":"Spain","lat":37.775001525878906,"lon":-0.8123890161514282},{"iata":"MAD","icao":"LEMD","name":"Adolfo Suárez Madrid–Barajas Airport","city":"Madrid","country":"Spain","lat":40.471926,"lon":-3.56264},{"iata":"AGP","icao":"LEMG","name":"Málaga Airport","city":"Malaga","country":"Spain","lat":36.67490005493164,"lon":-4.499110221862793},{"iata":"MAH","icao":"LEMH","name":"Menorca Airport","city":"Menorca","country":"Spain","lat":39.86259841918945,"lon":4.218649864196777},{"iata":"OZP","icao":"LEMO","name":"Moron Air Base","city":"Sevilla","country":"Spain","lat":37.17490005493164,"lon":-5.615940093994141},{"iata":"PNA","icao":"LEPP","name":"Pamplona Airport","city":"Pamplona","country":"Spain","lat":42.77000045776367,"lon":-1.6463299989700317},{"iata":"REU","icao":"LERS","name":"Reus Air Base","city":"Reus","country":"Spain","lat":41.14739990234375,"lon":1.1671700477600098},{"iata":"ROZ","icao":"LERT","name":"Rota Naval Station Airport","city":"Rota","country":"Spain","lat":36.645198822,"lon":-6.34946012497},{"iata":"SLM","icao":"LESA","name":"Salamanca Airport","city":"Salamanca","country":"Spain","lat":40.95209884643555,"lon":-5.501989841461182},{"iata":"EAS","icao":"LESO","name":"San Sebastian Airport","city":"San Sebastian","country":"Spain","lat":43.35649871826172,"lon":-1.7906099557876587},{"iata":"SCQ","icao":"LEST","name":"Santiago de Compostela Airport","city":"Santiago","country":"Spain","lat":42.89630126953125,"lon":-8.415140151977539},{"iata":"LEU","icao":"LESU","name":"Pirineus - la Seu d'Urgel Airport","city":"Seo De Urgel","country":"Spain","lat":42.3386,"lon":1.40917},{"iata":"TOJ","icao":"LETO","name":"Torrejón Airport","city":"Madrid","country":"Spain","lat":40.496700286865234,"lon":-3.4458699226379395},{"iata":"VLC","icao":"LEVC","name":"Valencia Airport","city":"Valencia","country":"Spain","lat":39.4893,"lon":-0.481625},{"iata":"VLL","icao":"LEVD","name":"Valladolid Airport","city":"Valladolid","country":"Spain","lat":41.7061004639,"lon":-4.85194015503},{"iata":"VIT","icao":"LEVT","name":"Vitoria/Foronda Airport","city":"Vitoria","country":"Spain","lat":42.8828010559082,"lon":-2.7244699001312256},{"iata":"VGO","icao":"LEVX","name":"Vigo Airport","city":"Vigo","country":"Spain","lat":42.2318000793457,"lon":-8.62677001953125},{"iata":"SDR","icao":"LEXJ","name":"Santander Airport","city":"Santander","country":"Spain","lat":43.427101135253906,"lon":-3.82000994682312},{"iata":"ZAZ","icao":"LEZG","name":"Zaragoza Air Base","city":"Zaragoza","country":"Spain","lat":41.66619873046875,"lon":-1.0415500402450562},{"iata":"SVQ","icao":"LEZL","name":"Sevilla Airport","city":"Sevilla","country":"Spain","lat":37.417999267578125,"lon":-5.8931097984313965},{"iata":"CQF","icao":"LFAC","name":"Calais-Dunkerque Airport","city":"Calais","country":"France","lat":50.962100982666016,"lon":1.954759955406189},{"iata":"BYF","icao":"LFAQ","name":"Albert-Bray Airport","city":"Albert","country":"France","lat":49.9715003967,"lon":2.69765996933},{"iata":"LTQ","icao":"LFAT","name":"Le Touquet-Côte d'Opale Airport","city":"Le Tourquet","country":"France","lat":50.517398834228516,"lon":1.6205899715423584},{"iata":"XVS","icao":"LFAV","name":"Valenciennes-Denain Airport","city":"Valenciennes","country":"France","lat":50.325801849365234,"lon":3.4612600803375244},{"iata":"AGF","icao":"LFBA","name":"Agen-La Garenne Airport","city":"Agen","country":"France","lat":44.17470169067383,"lon":0.5905560255050659},{"iata":"BOD","icao":"LFBD","name":"Bordeaux-Mérignac Airport","city":"Bordeaux","country":"France","lat":44.828300476100004,"lon":-0.715556025505},{"iata":"EGC","icao":"LFBE","name":"Bergerac-Roumanière Airport","city":"Bergerac","country":"France","lat":44.82529830932617,"lon":0.5186110138893127},{"iata":"CNG","icao":"LFBG","name":"Cognac-Châteaubernard (BA 709) Air Base","city":"Cognac","country":"France","lat":45.65829849243164,"lon":-0.3174999952316284},{"iata":"PIS","icao":"LFBI","name":"Poitiers-Biard Airport","city":"Poitiers","country":"France","lat":46.58769989013672,"lon":0.30666598677635193},{"iata":"MCU","icao":"LFBK","name":"Montluçon-Guéret Airport","city":"Montlucon-gueret","country":"France","lat":46.222599029541016,"lon":2.363960027694702},{"iata":"LIG","icao":"LFBL","name":"Limoges Airport","city":"Limoges","country":"France","lat":45.86280059814453,"lon":1.1794400215148926},{"iata":"NIT","icao":"LFBN","name":"Niort-Souché Airport","city":"Niort","country":"France","lat":46.313477,"lon":-0.394529},{"iata":"TLS","icao":"LFBO","name":"Toulouse-Blagnac Airport","city":"Toulouse","country":"France","lat":43.629101,"lon":1.36382},{"iata":"PUF","icao":"LFBP","name":"Pau Pyrénées Airport","city":"Pau","country":"France","lat":43.380001068115234,"lon":-0.41861099004745483},{"iata":"LDE","icao":"LFBT","name":"Tarbes-Lourdes-Pyrénées Airport","city":"Tarbes","country":"France","lat":43.1786994934082,"lon":-0.006438999902456999},{"iata":"ANG","icao":"LFBU","name":"Angoulême-Brie-Champniers Airport","city":"Angouleme","country":"France","lat":45.72919845581055,"lon":0.22145600616931915},{"iata":"BVE","icao":"LFSL","name":"Brive Souillac Airport","city":"Brive","country":"France","lat":45.039722,"lon":1.485556},{"iata":"PGX","icao":"LFBX","name":"Périgueux-Bassillac Airport","city":"Perigueux","country":"France","lat":45.19810104370117,"lon":0.815555989742279},{"iata":"BIQ","icao":"LFBZ","name":"Biarritz-Anglet-Bayonne Airport","city":"Biarritz-bayonne","country":"France","lat":43.4683333,"lon":-1.5311111},{"iata":"ZAO","icao":"LFCC","name":"Cahors-Lalbenque Airport","city":"Cahors","country":"France","lat":44.35139846801758,"lon":1.4752800464630127},{"iata":"LBI","icao":"LFCI","name":"Albi-Le Séquestre Airport","city":"Albi","country":"France","lat":43.91389846801758,"lon":2.1130599975585938},{"iata":"DCM","icao":"LFCK","name":"Castres-Mazamet Airport","city":"Castres","country":"France","lat":43.55630111694336,"lon":2.289180040359497},{"iata":"RDZ","icao":"LFCR","name":"Rodez-Marcillac Airport","city":"Rodez","country":"France","lat":44.407901763916016,"lon":2.4826700687408447},{"iata":"RYN","icao":"LFCY","name":"Royan-Médis Airport","city":"Royan","country":"France","lat":45.62810134887695,"lon":-0.9725000262260437},{"iata":"XMW","icao":"LFDB","name":"Montauban Airport","city":"Montauban","country":"France","lat":44.025699615478516,"lon":1.3780399560928345},{"iata":"RCO","icao":"LFDN","name":"Rochefort-Saint-Agnant (BA 721) Airport","city":"Rochefort","country":"France","lat":45.88779830932617,"lon":-0.9830560088157654},{"iata":"CMR","icao":"LFGA","name":"Colmar-Houssen Airport","city":"Colmar","country":"France","lat":48.109901428222656,"lon":7.359010219573975},{"iata":"DLE","icao":"LFGJ","name":"Dole-Tavaux Airport","city":"Dole","country":"France","lat":47.042686,"lon":5.435063},{"iata":"OBS","icao":"LFHO","name":"Aubenas-Ardèche Méridional Airport","city":"Aubenas-vals-lanas","country":"France","lat":44.544203,"lon":4.372192},{"iata":"LPY","icao":"LFHP","name":"Le Puy-Loudes Airport","city":"Le Puy","country":"France","lat":45.0806999206543,"lon":3.762890100479126},{"iata":"ETZ","icao":"LFJL","name":"Metz-Nancy-Lorraine Airport","city":"Metz","country":"France","lat":48.9821014404,"lon":6.25131988525},{"iata":"BIA","icao":"LFKB","name":"Bastia-Poretta Airport","city":"Bastia","country":"France","lat":42.55270004272461,"lon":9.48373031616211},{"iata":"CLY","icao":"LFKC","name":"Calvi-Sainte-Catherine Airport","city":"Calvi","country":"France","lat":42.5244444,"lon":8.7930556},{"iata":"FSC","icao":"LFKF","name":"Figari Sud-Corse Airport","city":"Figari","country":"France","lat":41.5005989074707,"lon":9.097780227661133},{"iata":"AJA","icao":"LFKJ","name":"Ajaccio-Napoléon Bonaparte Airport","city":"Ajaccio","country":"France","lat":41.92359924316406,"lon":8.8029203414917},{"iata":"PRP","icao":"LFKO","name":"Propriano Airport","city":"Propriano","country":"France","lat":41.66059875488281,"lon":8.889749526977539},{"iata":"SOZ","icao":"LFKS","name":"Solenzara (BA 126) Air Base","city":"Solenzara","country":"France","lat":41.924400329589844,"lon":9.406000137329102},{"iata":"AUF","icao":"LFLA","name":"Auxerre-Branches Airport","city":"Auxerre","country":"France","lat":47.85020065307617,"lon":3.497109889984131},{"iata":"CMF","icao":"LFLB","name":"Chambéry-Savoie Airport","city":"Chambery","country":"France","lat":45.638099670410156,"lon":5.880229949951172},{"iata":"CFE","icao":"LFLC","name":"Clermont-Ferrand Auvergne Airport","city":"Clermont-Ferrand","country":"France","lat":45.7867012024,"lon":3.1691699028},{"iata":"BOU","icao":"LFLD","name":"Bourges Airport","city":"Bourges","country":"France","lat":47.058101654052734,"lon":2.3702800273895264},{"iata":"QNJ","icao":"LFLI","name":"Annemasse Airport","city":"Annemasse","country":"France","lat":46.1920013428,"lon":6.268390178680001},{"iata":"LYS","icao":"LFLL","name":"Lyon Saint-Exupéry Airport","city":"Lyon","country":"France","lat":45.725556,"lon":5.081111},{"iata":"SYT","icao":"LFLN","name":"Saint-Yan Airport","city":"St.-yan","country":"France","lat":46.412498474121094,"lon":4.0132598876953125},{"iata":"RNE","icao":"LFLO","name":"Roanne-Renaison Airport","city":"Roanne","country":"France","lat":46.05830001831055,"lon":4.001389980316162},{"iata":"NCY","icao":"LFLP","name":"Annecy-Haute-Savoie-Mont Blanc Airport","city":"Annecy","country":"France","lat":45.9308333,"lon":6.1063889},{"iata":"GNB","icao":"LFLS","name":"Grenoble-Isère Airport","city":"Grenoble","country":"France","lat":45.36289978027344,"lon":5.329370021820068},{"iata":"VAF","icao":"LFLU","name":"Valence-Chabeuil Airport","city":"Valence","country":"France","lat":44.9216,"lon":4.9699},{"iata":"VHY","icao":"LFLV","name":"Vichy-Charmeil Airport","city":"Vichy","country":"France","lat":46.169700622558594,"lon":3.4037399291992188},{"iata":"AUR","icao":"LFLW","name":"Aurillac Airport","city":"Aurillac","country":"France","lat":44.89139938354492,"lon":2.4219400882720947},{"iata":"CHR","icao":"LFLX","name":"Châteauroux-Déols \"\"Marcel Dassault\"\" Airport","city":"Chateauroux","country":"France","lat":46.860278,"lon":1.721111},{"iata":"LYN","icao":"LFLY","name":"Lyon-Bron Airport","city":"Lyon","country":"France","lat":45.72719955444336,"lon":4.944270133972168},{"iata":"CEQ","icao":"LFMD","name":"Cannes-Mandelieu Airport","city":"Cannes","country":"France","lat":43.542,"lon":6.95348},{"iata":"EBU","icao":"LFMH","name":"Saint-Étienne-Bouthéon Airport","city":"St-Etienne","country":"France","lat":45.54059982299805,"lon":4.296390056610107},{"iata":"CCF","icao":"LFMK","name":"Carcassonne Airport","city":"Carcassonne","country":"France","lat":43.215999603271484,"lon":2.3063199520111084},{"iata":"MRS","icao":"LFML","name":"Marseille Provence Airport","city":"Marseille","country":"France","lat":43.439271922,"lon":5.22142410278},{"iata":"NCE","icao":"LFMN","name":"Nice-Côte d'Azur Airport","city":"Nice","country":"France","lat":43.6584014893,"lon":7.215869903560001},{"iata":"XOG","icao":"LFMO","name":"Orange-Caritat (BA 115) Air Base","city":"Orange","country":"France","lat":44.140499114990234,"lon":4.866720199584961},{"iata":"PGF","icao":"LFMP","name":"Perpignan-Rivesaltes (Llabanère) Airport","city":"Perpignan","country":"France","lat":42.74039840698242,"lon":2.8706700801849365},{"iata":"CTT","icao":"LFMQ","name":"Le Castellet Airport","city":"Le Castellet","country":"France","lat":43.252498626708984,"lon":5.785190105438232},{"iata":"MPL","icao":"LFMT","name":"Montpellier-Méditerranée Airport","city":"Montpellier","country":"France","lat":43.57619857788086,"lon":3.96301007270813},{"iata":"BZR","icao":"LFMU","name":"Béziers-Vias Airport","city":"Beziers","country":"France","lat":43.32350158691406,"lon":3.3538999557495117},{"iata":"AVN","icao":"LFMV","name":"Avignon-Caumont Airport","city":"Avignon","country":"France","lat":43.90729904174805,"lon":4.901830196380615},